# 
# Header Description:
# 
# Version: v3.0.0.10 Platform: 10 Manufacturer: HUAWEI Model: STK-L22
# 
# Raw,utcTimeMillis,TimeNanos,LeapSecond,TimeUncertaintyNanos,FullBiasNanos,BiasNanos,BiasUncertaintyNanos,DriftNanosPerSecond,DriftUncertaintyNanosPerSecond,HardwareClockDiscontinuityCount,Svid,TimeOffsetNanos,State,ReceivedSvTimeNanos,ReceivedSvTimeUncertaintyNanos,Cn0DbHz,PseudorangeRateMetersPerSecond,PseudorangeRateUncertaintyMetersPerSecond,AccumulatedDeltaRangeState,AccumulatedDeltaRangeMeters,AccumulatedDeltaRangeUncertaintyMeters,CarrierFrequencyHz,CarrierCycles,CarrierPhase,CarrierPhaseUncertainty,MultipathIndicator,SnrInDb,ConstellationType,AgcDb,BasebandCn0DbHz,FullInterSignalBiasNanos,FullInterSignalBiasUncertaintyNanos,SatelliteInterSignalBiasNanos,SatelliteInterSignalBiasUncertaintyNanos,CodeType,ChipsetElapsedRealtimeNanos
# 
# UncalAccel,utcTimeMillis,elapsedRealtimeNanos,UncalAccelXMps2,UncalAccelYMps2,UncalAccelZMps2,BiasXMps2,BiasYMps2,BiasZMps2
# 
# UncalGyro,utcTimeMillis,elapsedRealtimeNanos,UncalGyroXRadPerSec,UncalGyroYRadPerSec,UncalGyroZRadPerSec,DriftXRadPerSec,DriftYRadPerSec,DriftZRadPerSec
# 
# UncalMag,utcTimeMillis,elapsedRealtimeNanos,UncalMagXMicroT,UncalMagYMicroT,UncalMagZMicroT,BiasXMicroT,BiasYMicroT,BiasZMicroT
# 
# OrientationDeg,utcTimeMillis,elapsedRealtimeNanos,yawDeg,rollDeg,pitchDeg
# 
# Fix,Provider,LatitudeDegrees,LongitudeDegrees,AltitudeMeters,SpeedMps,AccuracyMeters,BearingDegrees,UnixTimeMillis,SpeedAccuracyMps,BearingAccuracyDegrees,elapsedRealtimeNanos
# 
# Nav,Svid,Type,Status,MessageId,Sub-messageId,Data(Bytes)
# 
# Status,UnixTimeMillis,SignalCount,SignalIndex,ConstellationType,Svid,CarrierFrequencyHz,Cn0DbHz,AzimuthDegrees,ElevationDegrees,UsedInFix,HasAlmanacData,HasEphemerisData,BasebandCn0DbHz
# 
OrientationDeg,1636203495437,1062860007890555,329,-3,-13
OrientationDeg,1636203495452,1062860023773367,329,-3,-13
OrientationDeg,1636203495468,1062860039654617,328,-4,-12
OrientationDeg,1636203495485,1062860055535867,328,-4,-12
OrientationDeg,1636203495500,1062860071420242,327,-4,-11
OrientationDeg,1636203495516,1062860087301492,327,-4,-11
OrientationDeg,1636203495532,1062860103182742,327,-2,-11
OrientationDeg,1636203495549,1062860119065555,327,-1,-10
OrientationDeg,1636203495563,1062860134946805,326,0,-10
OrientationDeg,1636203495579,1062860150829617,325,0,-10
OrientationDeg,1636203495596,1062860166710867,323,0,-10
OrientationDeg,1636203495611,1062860182593680,322,0,-9
OrientationDeg,1636203495627,1062860198476492,320,0,-9
Status,0,26,0,3,5,1602562560,0.00,324.78,25.90,0,1,0,
Status,0,26,1,1,4,1575420032,0.00,98.14,77.21,0,1,1,
Status,0,26,2,1,8,1575420032,0.00,85.16,58.77,0,1,1,
Status,0,26,3,1,9,1575420032,0.00,331.66,58.08,0,1,1,
Status,0,26,4,1,27,1575420032,0.00,53.92,33.53,0,1,1,
Status,0,26,5,1,7,1575420032,0.00,325.20,25.69,0,1,1,
Status,0,26,6,1,3,1575420032,0.00,189.35,24.16,0,1,0,
Status,0,26,7,1,14,1575420032,0.00,242.35,15.86,0,1,1,
Status,0,26,8,1,21,1575420032,0.00,141.97,13.75,0,1,1,
Status,0,26,9,1,22,1575420032,0.00,171.58,12.35,0,1,1,
Status,0,26,10,1,16,1575420032,0.00,34.49,12.37,0,1,1,
Status,0,26,11,1,1,1575420032,0.00,167.09,9.44,0,1,1,
Status,0,26,12,1,30,1575420032,0.00,300.77,6.44,0,1,1,
Status,0,26,13,3,4,1605374976,0.00,269.10,68.78,0,0,0,
Status,0,26,14,3,3,1604812544,0.00,175.46,38.54,0,0,0,
Status,0,26,15,3,15,1602000000,0.00,313.45,28.10,0,1,1,
Status,0,26,16,3,17,1604249984,0.00,136.51,24.20,0,1,1,
Status,0,26,17,3,14,1598062464,0.00,11.04,23.56,0,0,0,
Status,0,26,18,3,24,1603124992,0.00,80.76,20.89,0,0,1,
Status,0,26,19,5,6,1561097984,0.00,93.80,54.53,0,0,1,
Status,0,26,20,5,7,1561097984,0.00,23.53,54.81,0,0,1,
Status,0,26,21,5,8,1561097984,0.00,156.25,5.14,0,0,0,
Status,0,26,22,5,9,1561097984,0.00,67.77,61.41,0,0,1,
Status,0,26,23,5,10,1561097984,0.00,5.33,67.47,0,1,1,
Status,0,26,24,5,13,1561097984,0.00,165.82,9.27,0,1,0,
Status,0,26,25,5,1,1561097984,0.00,169.08,26.75,0,0,0,
OrientationDeg,1636203495644,1062860214365555,319,0,-9
OrientationDeg,1636203495659,1062860230238992,318,-1,-9
OrientationDeg,1636203495675,1062860246123367,316,-1,-9
OrientationDeg,1636203495691,1062860262004617,315,-2,-9
OrientationDeg,1636203495706,1062860277887430,314,-2,-9
OrientationDeg,1636203495722,1062860293776492,313,-2,-9
OrientationDeg,1636203495738,1062860309649930,312,-3,-10
OrientationDeg,1636203495754,1062860325532742,311,-3,-10
OrientationDeg,1636203495771,1062860341417117,310,-3,-10
OrientationDeg,1636203495786,1062860357296805,307,-2,-9
OrientationDeg,1636203495803,1062860373179617,306,-2,-9
OrientationDeg,1636203495818,1062860389060867,303,-2,-8
OrientationDeg,1636203495834,1062860404942117,300,-2,-7
OrientationDeg,1636203495849,1062860420828055,298,-1,-6
OrientationDeg,1636203495866,1062860436707742,296,-1,-4
OrientationDeg,1636203495882,1062860452599930,293,-1,-3
OrientationDeg,1636203495898,1062860468471805,290,-1,-1
OrientationDeg,1636203495913,1062860484353055,286,-2,0
OrientationDeg,1636203495929,1062860500235867,282,-3,0
OrientationDeg,1636203495946,1062860516118680,278,-4,1
OrientationDeg,1636203495961,1062860532004617,275,-5,1
OrientationDeg,1636203495976,1062860547882742,271,-5,2
OrientationDeg,1636203495993,1062860563763992,267,-5,3
OrientationDeg,1636203496009,1062860579646805,264,-6,3
OrientationDeg,1636203496024,1062860595529617,261,-6,3
OrientationDeg,1636203496040,1062860611418680,259,-6,3
OrientationDeg,1636203496057,1062860627293680,256,-7,4
OrientationDeg,1636203496073,1062860643174930,253,-7,3
OrientationDeg,1636203496089,1062860659057742,251,-8,2
OrientationDeg,1636203496103,1062860674940555,247,-9,2
OrientationDeg,1636203496119,1062860690821805,245,-9,2
OrientationDeg,1636203496136,1062860706703055,242,-9,2
OrientationDeg,1636203496152,1062860722585867,239,-9,3
OrientationDeg,1636203496167,1062860738467117,237,-9,3
OrientationDeg,1636203496184,1062860754349930,234,-9,3
OrientationDeg,1636203496200,1062860770232742,232,-9,3
OrientationDeg,1636203496215,1062860786113992,230,-9,3
OrientationDeg,1636203496230,1062860801996805,228,-9,3
OrientationDeg,1636203496246,1062860817879617,226,-8,3
OrientationDeg,1636203496263,1062860833760867,223,-6,3
OrientationDeg,1636203496278,1062860849649930,220,-3,4
OrientationDeg,1636203496294,1062860865524930,217,0,6
OrientationDeg,1636203496310,1062860881406180,214,1,6
OrientationDeg,1636203496326,1062860897288992,212,3,7
OrientationDeg,1636203496342,1062860913171805,209,3,7
OrientationDeg,1636203496358,1062860929053055,206,2,7
OrientationDeg,1636203496374,1062860944935867,203,0,6
OrientationDeg,1636203496389,1062860960817117,200,-1,5
OrientationDeg,1636203496405,1062860976699930,197,-4,4
OrientationDeg,1636203496421,1062860992581180,194,-5,2
OrientationDeg,1636203496438,1062861008468680,192,-6,1
OrientationDeg,1636203496453,1062861024346805,190,-5,1
OrientationDeg,1636203496469,1062861040228055,189,-4,1
OrientationDeg,1636203496485,1062861056109305,189,-2,1
OrientationDeg,1636203496501,1062861071992117,189,-1,2
OrientationDeg,1636203496516,1062861087873367,189,-1,2
OrientationDeg,1636203496533,1062861103756180,188,-1,3
OrientationDeg,1636203496548,1062861119638992,187,-1,2
OrientationDeg,1636203496564,1062861135520242,187,-2,2
OrientationDeg,1636203496580,1062861151403055,186,-3,1
OrientationDeg,1636203496596,1062861167287430,186,-5,0
OrientationDeg,1636203496613,1062861183167117,186,-6,0
OrientationDeg,1636203496628,1062861199049930,186,-7,0
Status,0,26,0,3,5,1602562560,22.00,324.77,25.91,0,1,0,
Status,0,26,1,1,4,1575420032,0.00,98.18,77.21,0,1,1,
Status,0,26,2,1,8,1575420032,0.00,85.14,58.77,0,1,1,
Status,0,26,3,1,9,1575420032,0.00,331.65,58.09,0,1,1,
Status,0,26,4,1,27,1575420032,0.00,53.91,33.53,0,1,1,
Status,0,26,5,1,7,1575420032,0.00,325.21,25.69,0,1,1,
Status,0,26,6,1,3,1575420032,0.00,189.35,24.15,0,1,0,
Status,0,26,7,1,14,1575420032,0.00,242.35,15.86,0,1,1,
Status,0,26,8,1,21,1575420032,0.00,141.96,13.76,0,1,1,
Status,0,26,9,1,22,1575420032,0.00,171.58,12.35,0,1,1,
Status,0,26,10,1,16,1575420032,0.00,34.49,12.37,0,1,1,
Status,0,26,11,1,1,1575420032,0.00,167.08,9.44,0,1,1,
Status,0,26,12,1,30,1575420032,0.00,300.77,6.44,0,1,1,
Status,0,26,13,3,4,1605374976,0.00,269.07,68.78,0,0,0,
Status,0,26,14,3,3,1604812544,0.00,175.46,38.53,0,0,0,
Status,0,26,15,3,15,1602000000,0.00,313.46,28.10,0,1,1,
Status,0,26,16,3,17,1604249984,0.00,136.50,24.21,0,1,1,
Status,0,26,17,3,14,1598062464,0.00,11.04,23.55,0,0,0,
Status,0,26,18,3,24,1603124992,0.00,80.75,20.89,0,0,1,
Status,0,26,19,5,6,1561097984,0.00,93.80,54.53,0,0,1,
Status,0,26,20,5,7,1561097984,0.00,23.52,54.81,0,0,1,
Status,0,26,21,5,8,1561097984,0.00,156.25,5.14,0,0,0,
Status,0,26,22,5,9,1561097984,0.00,67.78,61.42,0,0,1,
Status,0,26,23,5,10,1561097984,0.00,5.32,67.46,0,1,1,
Status,0,26,24,5,13,1561097984,0.00,165.82,9.27,0,1,0,
Status,0,26,25,5,1,1561097984,0.00,169.08,26.75,0,0,0,
OrientationDeg,1636203496644,1062861214931180,186,-7,-1
OrientationDeg,1636203496659,1062861230813992,186,-6,-1
OrientationDeg,1636203496676,1062861246696805,186,-6,-2
OrientationDeg,1636203496691,1062861262578055,187,-6,-2
OrientationDeg,1636203496708,1062861278459305,187,-6,-2
OrientationDeg,1636203496723,1062861294342117,188,-6,-3
OrientationDeg,1636203496739,1062861310223367,188,-6,-3
OrientationDeg,1636203496755,1062861326106180,189,-6,-3
OrientationDeg,1636203496770,1062861341988992,189,-5,-3
OrientationDeg,1636203496786,1062861357870242,190,-5,-3
OrientationDeg,1636203496802,1062861373754617,190,-4,-3
OrientationDeg,1636203496819,1062861389634305,191,-4,-3
OrientationDeg,1636203496835,1062861405524930,191,-3,-3
OrientationDeg,1636203496850,1062861421398367,192,-3,-3
OrientationDeg,1636203496866,1062861437281180,192,-3,-3
OrientationDeg,1636203496882,1062861453168680,192,-2,-3
OrientationDeg,1636203496898,1062861469045242,192,-1,-3
OrientationDeg,1636203496913,1062861484926492,192,0,-2
OrientationDeg,1636203496930,1062861500809305,191,1,-2
OrientationDeg,1636203496945,1062861516692117,190,2,-2
OrientationDeg,1636203496961,1062861532573367,190,3,-2
OrientationDeg,1636203496977,1062861548456180,189,4,-2
OrientationDeg,1636203496993,1062861564346805,188,5,-1
OrientationDeg,1636203497009,1062861580220242,188,5,0
OrientationDeg,1636203497025,1062861596103055,187,5,0
OrientationDeg,1636203497041,1062861612010867,187,3,0
OrientationDeg,1636203497056,1062861627867117,187,2,0
OrientationDeg,1636203497073,1062861643753055,188,1,1
OrientationDeg,1636203497088,1062861659629617,187,0,1
OrientationDeg,1636203497104,1062861675512430,187,1,1
OrientationDeg,1636203497121,1062861691395242,187,2,1
OrientationDeg,1636203497136,1062861707276492,187,3,1
OrientationDeg,1636203497152,1062861723159305,187,3,0
OrientationDeg,1636203497168,1062861739040555,187,3,0
OrientationDeg,1636203497183,1062861754923367,188,2,0
OrientationDeg,1636203497199,1062861770806180,188,1,0
OrientationDeg,1636203497215,1062861786687430,188,1,0
OrientationDeg,1636203497231,1062861802571805,187,1,0
OrientationDeg,1636203497247,1062861818451492,188,1,0
OrientationDeg,1636203497263,1062861834332742,188,1,0
OrientationDeg,1636203497279,1062861850234305,188,0,0
OrientationDeg,1636203497295,1062861866098367,188,0,0
OrientationDeg,1636203497310,1062861881981180,188,0,0
OrientationDeg,1636203497326,1062861897862430,189,-1,0
OrientationDeg,1636203497342,1062861913743680,189,-2,-1
OrientationDeg,1636203497358,1062861929626492,189,-4,-1
OrientationDeg,1636203497374,1062861945509305,190,-5,-1
OrientationDeg,1636203497390,1062861961393680,190,-5,-1
OrientationDeg,1636203497406,1062861977273367,190,-5,0
OrientationDeg,1636203497422,1062861993154617,189,-5,0
OrientationDeg,1636203497439,1062862009037430,189,-5,0
OrientationDeg,1636203497454,1062862024920242,190,-5,0
OrientationDeg,1636203497469,1062862040804617,189,-5,0
OrientationDeg,1636203497485,1062862056682742,189,-4,0
OrientationDeg,1636203497501,1062862072565555,189,-4,0
OrientationDeg,1636203497518,1062862088448367,189,-4,0
OrientationDeg,1636203497533,1062862104329617,189,-4,0
OrientationDeg,1636203497549,1062862120210867,189,-4,1
OrientationDeg,1636203497565,1062862136093680,189,-4,2
OrientationDeg,1636203497581,1062862151976492,189,-4,3
OrientationDeg,1636203497596,1062862167857742,188,-1,1
OrientationDeg,1636203497612,1062862183740555,188,0,1
OrientationDeg,1636203497629,1062862199621805,188,0,1
Status,0,26,0,3,5,1602562560,25.00,324.77,25.92,0,1,0,
Status,0,26,1,1,4,1575420032,0.00,98.22,77.21,0,1,1,
Status,0,26,2,1,8,1575420032,0.00,85.13,58.77,0,1,1,
Status,0,26,3,1,9,1575420032,0.00,331.65,58.09,0,1,1,
Status,0,26,4,1,27,1575420032,0.00,53.90,33.52,0,1,1,
Status,0,26,5,1,7,1575420032,0.00,325.22,25.69,0,1,1,
Status,0,26,6,1,3,1575420032,0.00,189.34,24.15,0,1,0,
Status,0,26,7,1,14,1575420032,0.00,242.36,15.87,0,1,1,
Status,0,26,8,1,21,1575420032,0.00,141.95,13.76,0,1,1,
Status,0,26,9,1,22,1575420032,0.00,171.57,12.35,0,1,1,
Status,0,26,10,1,16,1575420032,0.00,34.50,12.36,0,1,1,
Status,0,26,11,1,1,1575420032,0.00,167.08,9.44,0,1,1,
Status,0,26,12,1,30,1575420032,0.00,300.78,6.45,0,1,1,
Status,0,26,13,3,4,1605374976,0.00,269.05,68.78,0,0,0,
Status,0,26,14,3,3,1604812544,0.00,175.46,38.53,0,0,0,
Status,0,26,15,3,15,1602000000,0.00,313.47,28.10,0,1,1,
Status,0,26,16,3,17,1604249984,0.00,136.50,24.21,0,1,1,
Status,0,26,17,3,14,1598062464,0.00,11.05,23.55,0,0,0,
Status,0,26,18,3,24,1603124992,0.00,80.74,20.89,0,0,1,
Status,0,26,19,5,6,1561097984,0.00,93.81,54.53,0,0,1,
Status,0,26,20,5,7,1561097984,0.00,23.52,54.81,0,0,1,
Status,0,26,21,5,8,1561097984,0.00,156.25,5.14,0,0,0,
Status,0,26,22,5,9,1561097984,0.00,67.79,61.42,0,0,1,
Status,0,26,23,5,10,1561097984,0.00,5.32,67.46,0,1,1,
Status,0,26,24,5,13,1561097984,0.00,165.81,9.27,0,1,0,
Status,0,26,25,5,1,1561097984,0.00,169.09,26.75,0,0,0,
OrientationDeg,1636203497645,1062862215504617,188,0,1
OrientationDeg,1636203497661,1062862231385867,188,0,1
OrientationDeg,1636203497677,1062862247268680,188,1,1
OrientationDeg,1636203497692,1062862263151492,187,2,1
OrientationDeg,1636203497708,1062862279032742,187,3,1
OrientationDeg,1636203497723,1062862294915555,187,3,1
OrientationDeg,1636203497740,1062862310796805,187,3,1
OrientationDeg,1636203497755,1062862326679617,187,3,1
OrientationDeg,1636203497771,1062862342560867,188,3,1
OrientationDeg,1636203497787,1062862358442117,188,3,1
OrientationDeg,1636203497803,1062862374326492,188,2,1
OrientationDeg,1636203497819,1062862390207742,189,2,1
OrientationDeg,1636203497835,1062862406090555,189,2,1
OrientationDeg,1636203497850,1062862421971805,189,3,0
OrientationDeg,1636203497866,1062862437859305,189,3,0
OrientationDeg,1636203497883,1062862453735867,189,2,-2
OrientationDeg,1636203497899,1062862469618680,188,2,-2
OrientationDeg,1636203497915,1062862485506180,189,0,-2
OrientationDeg,1636203497930,1062862501382742,188,0,-2
OrientationDeg,1636203497946,1062862517263992,188,0,-2
OrientationDeg,1636203497962,1062862533146805,188,0,-2
OrientationDeg,1636203497978,1062862549029617,188,0,-2
OrientationDeg,1636203497994,1062862564910867,188,0,-2
OrientationDeg,1636203498009,1062862580793680,188,0,-2
OrientationDeg,1636203498025,1062862596674930,188,0,-2
OrientationDeg,1636203498042,1062862612557742,188,0,-2
OrientationDeg,1636203498058,1062862628438992,188,0,-2
OrientationDeg,1636203498073,1062862644321805,188,0,-2
OrientationDeg,1636203498090,1062862660203055,188,0,-2
OrientationDeg,1636203498105,1062862676085867,188,0,-2
OrientationDeg,1636203498121,1062862691968680,188,0,-2
OrientationDeg,1636203498136,1062862707849930,188,0,-2
OrientationDeg,1636203498152,1062862723732742,188,0,-2
OrientationDeg,1636203498168,1062862739613992,188,0,-2
OrientationDeg,1636203498184,1062862755496805,188,0,-2
OrientationDeg,1636203498200,1062862771379617,188,0,-2
OrientationDeg,1636203498217,1062862787260867,188,0,-2
OrientationDeg,1636203498232,1062862803142117,188,0,-2
OrientationDeg,1636203498248,1062862819024930,188,0,-2
OrientationDeg,1636203498263,1062862834906180,188,0,-3
OrientationDeg,1636203498279,1062862850788992,188,0,-3
OrientationDeg,1636203498295,1062862866671805,189,0,-3
OrientationDeg,1636203498312,1062862882553055,189,0,-3
OrientationDeg,1636203498328,1062862898435867,189,0,-3
OrientationDeg,1636203498343,1062862914317117,189,0,-3
OrientationDeg,1636203498360,1062862930199930,189,0,-3
OrientationDeg,1636203498375,1062862946081180,189,0,-3
OrientationDeg,1636203498390,1062862961963992,189,0,-3
OrientationDeg,1636203498406,1062862977845242,189,0,-3
OrientationDeg,1636203498422,1062862993729617,189,0,-3
OrientationDeg,1636203498438,1062863009609305,189,0,-2
OrientationDeg,1636203498454,1062863025492117,189,0,-2
OrientationDeg,1636203498470,1062863041374930,189,0,-2
OrientationDeg,1636203498486,1062863057256180,189,0,-2
OrientationDeg,1636203498502,1062863073138992,189,0,-2
OrientationDeg,1636203498519,1062863089020242,189,0,-2
OrientationDeg,1636203498534,1062863104903055,189,0,-2
OrientationDeg,1636203498549,1062863120785867,189,0,-2
OrientationDeg,1636203498565,1062863136667117,189,0,-2
OrientationDeg,1636203498581,1062863152553055,189,0,-2
OrientationDeg,1636203498597,1062863168431180,189,0,-2
OrientationDeg,1636203498613,1062863184312430,189,0,-2
OrientationDeg,1636203498629,1062863200195242,189,0,-2
OrientationDeg,1636203498645,1062863216078055,189,0,-2
Status,0,26,0,3,5,1602562560,20.00,324.76,25.92,1,1,0,
Status,0,26,1,1,4,1575420032,0.00,98.26,77.20,0,1,1,
Status,0,26,2,1,8,1575420032,0.00,85.11,58.76,0,1,1,
Status,0,26,3,1,9,1575420032,0.00,331.65,58.10,0,1,1,
Status,0,26,4,1,27,1575420032,0.00,53.90,33.52,0,1,1,
Status,0,26,5,1,7,1575420032,0.00,325.22,25.70,0,1,1,
Status,0,26,6,1,3,1575420032,0.00,189.34,24.14,0,1,0,
Status,0,26,7,1,14,1575420032,0.00,242.37,15.87,0,1,1,
Status,0,26,8,1,21,1575420032,0.00,141.94,13.76,0,1,1,
Status,0,26,9,1,22,1575420032,0.00,171.57,12.34,0,1,1,
Status,0,26,10,1,16,1575420032,0.00,34.50,12.35,0,1,1,
Status,0,26,11,1,1,1575420032,0.00,167.07,9.45,0,1,1,
Status,0,26,12,1,30,1575420032,0.00,300.78,6.45,0,1,1,
Status,0,26,13,3,4,1605374976,0.00,269.02,68.77,0,0,0,
Status,0,26,14,3,3,1604812544,0.00,175.46,38.52,0,0,0,
Status,0,26,15,3,15,1602000000,0.00,313.48,28.10,0,1,1,
Status,0,26,16,3,17,1604249984,0.00,136.49,24.22,0,1,1,
Status,0,26,17,3,14,1598062464,0.00,11.06,23.55,0,0,0,
Status,0,26,18,3,24,1603124992,0.00,80.73,20.89,0,0,1,
Status,0,26,19,5,6,1561097984,0.00,93.82,54.53,0,0,1,
Status,0,26,20,5,7,1561097984,0.00,23.52,54.80,0,0,1,
Status,0,26,21,5,8,1561097984,0.00,156.25,5.14,0,0,0,
Status,0,26,22,5,9,1561097984,0.00,67.79,61.42,0,0,1,
Status,0,26,23,5,10,1561097984,0.00,5.32,67.46,0,1,1,
Status,0,26,24,5,13,1561097984,0.00,165.81,9.27,0,1,0,
Status,0,26,25,5,1,1561097984,0.00,169.09,26.75,0,0,0,
OrientationDeg,1636203498661,1062863231959305,189,0,-2
OrientationDeg,1636203498676,1062863247842117,189,0,-2
OrientationDeg,1636203498692,1062863263723367,189,0,-2
OrientationDeg,1636203498709,1062863279606180,189,0,-2
OrientationDeg,1636203498724,1062863295488992,189,0,-2
OrientationDeg,1636203498740,1062863311370242,189,0,-2
OrientationDeg,1636203498757,1062863327253055,189,0,-2
OrientationDeg,1636203498773,1062863343134305,189,0,-2
OrientationDeg,1636203498788,1062863359015555,189,0,-2
OrientationDeg,1636203498804,1062863374899930,189,0,-2
OrientationDeg,1636203498820,1062863390781180,189,0,-2
OrientationDeg,1636203498835,1062863406663992,189,0,-2
OrientationDeg,1636203498851,1062863422545242,189,0,-2
OrientationDeg,1636203498867,1062863438432742,189,0,-2
OrientationDeg,1636203498884,1062863454309305,189,0,-2
OrientationDeg,1636203498899,1062863470192117,189,0,-2
OrientationDeg,1636203498916,1062863486073367,189,0,-2
OrientationDeg,1636203498930,1062863501956180,189,0,-2
OrientationDeg,1636203498946,1062863517837430,189,0,-2
OrientationDeg,1636203498962,1062863533720242,189,0,-2
OrientationDeg,1636203498978,1062863549603055,189,0,-2
OrientationDeg,1636203498994,1062863565484305,189,0,-2
OrientationDeg,1636203499011,1062863581367117,189,0,-2
OrientationDeg,1636203499026,1062863597274930,189,0,-2
OrientationDeg,1636203499043,1062863613129617,189,0,-2
OrientationDeg,1636203499058,1062863629018680,189,0,-2
OrientationDeg,1636203499073,1062863644895242,189,0,-2
OrientationDeg,1636203499089,1062863660776492,189,0,-2
OrientationDeg,1636203499105,1062863676659305,189,0,-2
OrientationDeg,1636203499121,1062863692540555,189,0,-2
OrientationDeg,1636203499137,1062863708424930,189,0,-2
OrientationDeg,1636203499154,1062863724306180,189,0,-2
OrientationDeg,1636203499169,1062863740187430,189,0,-2
OrientationDeg,1636203499185,1062863756070242,189,0,-2
OrientationDeg,1636203499200,1062863771951492,189,0,-2
OrientationDeg,1636203499217,1062863787840555,189,0,-2
OrientationDeg,1636203499232,1062863803715555,189,0,-2
OrientationDeg,1636203499248,1062863819598367,189,0,-2
OrientationDeg,1636203499264,1062863835479617,189,0,-2
OrientationDeg,1636203499280,1062863851362430,189,0,-2
OrientationDeg,1636203499297,1062863867243680,189,0,-2
OrientationDeg,1636203499313,1062863883126492,189,0,-2
OrientationDeg,1636203499329,1062863899009305,189,0,-2
OrientationDeg,1636203499343,1062863914896805,189,0,-2
OrientationDeg,1636203499359,1062863930771805,189,0,-2
OrientationDeg,1636203499376,1062863946654617,189,0,-2
OrientationDeg,1636203499392,1062863962537430,189,0,-1
OrientationDeg,1636203499407,1062863978418680,189,0,-1
OrientationDeg,1636203499423,1062863994303055,189,0,-1
OrientationDeg,1636203499439,1062864010182742,189,0,-1
OrientationDeg,1636203499455,1062864026065555,189,0,-1
OrientationDeg,1636203499470,1062864041946805,189,0,-1
OrientationDeg,1636203499487,1062864057829617,189,0,-1
OrientationDeg,1636203499502,1062864073718680,189,0,-1
OrientationDeg,1636203499518,1062864089593680,189,0,-1
OrientationDeg,1636203499534,1062864105484305,189,0,-1
OrientationDeg,1636203499551,1062864121357742,189,0,-1
OrientationDeg,1636203499566,1062864137240555,189,0,-1
OrientationDeg,1636203499582,1062864153129617,189,0,-1
OrientationDeg,1636203499599,1062864169004617,189,0,-1
OrientationDeg,1636203499613,1062864184885867,189,0,-1
OrientationDeg,1636203499630,1062864200768680,189,0,-1
OrientationDeg,1636203499645,1062864216649930,189,0,-1
Status,0,26,0,3,5,1602562560,25.00,324.76,25.93,1,1,0,
Status,0,26,1,1,4,1575420032,0.00,98.30,77.20,0,1,1,
Status,0,26,2,1,8,1575420032,0.00,85.09,58.76,0,1,1,
Status,0,26,3,1,9,1575420032,0.00,331.64,58.11,0,1,1,
Status,0,26,4,1,27,1575420032,0.00,53.89,33.51,0,1,1,
Status,0,26,5,1,7,1575420032,0.00,325.23,25.70,0,1,1,
Status,0,26,6,1,3,1575420032,0.00,189.33,24.14,0,1,0,
Status,0,26,7,1,14,1575420032,0.00,242.37,15.88,0,1,1,
Status,0,26,8,1,21,1575420032,0.00,141.94,13.76,0,1,1,
Status,0,26,9,1,22,1575420032,0.00,171.56,12.34,0,1,1,
Status,0,26,10,1,16,1575420032,0.00,34.50,12.35,0,1,1,
Status,0,26,11,1,1,1575420032,0.00,167.06,9.45,0,1,1,
Status,0,26,12,1,30,1575420032,0.00,300.79,6.45,0,1,1,
Status,0,26,13,3,4,1605374976,0.00,268.99,68.77,0,0,0,
Status,0,26,14,3,3,1604812544,0.00,175.46,38.51,0,0,0,
Status,0,26,15,3,15,1602000000,0.00,313.49,28.10,0,1,1,
Status,0,26,16,3,17,1604249984,0.00,136.48,24.22,0,1,1,
Status,0,26,17,3,14,1598062464,0.00,11.07,23.55,0,0,0,
Status,0,26,18,3,24,1603124992,0.00,80.72,20.89,0,0,1,
Status,0,26,19,5,6,1561097984,0.00,93.83,54.53,0,0,1,
Status,0,26,20,5,7,1561097984,0.00,23.52,54.80,0,0,1,
Status,0,26,21,5,8,1561097984,0.00,156.24,5.14,0,0,0,
Status,0,26,22,5,9,1561097984,0.00,67.80,61.42,0,0,1,
Status,0,26,23,5,10,1561097984,0.00,5.32,67.45,0,1,1,
Status,0,26,24,5,13,1561097984,0.00,165.81,9.27,0,1,0,
Status,0,26,25,5,1,1561097984,0.00,169.09,26.75,0,0,0,
OrientationDeg,1636203499661,1062864232532742,189,0,-1
OrientationDeg,1636203499678,1062864248415555,189,0,-1
OrientationDeg,1636203499693,1062864264296805,189,0,-1
OrientationDeg,1636203499709,1062864280179617,189,0,-1
OrientationDeg,1636203499725,1062864296060867,189,0,-1
Fix,GPS,13.0421977,80.1996743,0.000000,0.000000,15.500000,0.000000,1636203500858,0.0,0.0,1062864245581124
OrientationDeg,1636203499740,1062864311946805,189,0,-1
OrientationDeg,1636203499756,1062864327826492,189,0,-1
OrientationDeg,1636203499772,1062864343707742,189,0,-1
OrientationDeg,1636203499788,1062864359588992,189,0,-1
OrientationDeg,1636203499804,1062864375471805,189,0,-1
OrientationDeg,1636203499821,1062864391354617,189,0,-1
OrientationDeg,1636203499836,1062864407235867,189,0,-1
OrientationDeg,1636203499852,1062864423118680,189,0,-1
OrientationDeg,1636203499867,1062864438999930,189,0,-1
OrientationDeg,1636203499883,1062864454882742,189,0,-1
OrientationDeg,1636203499899,1062864470763992,189,0,-1
OrientationDeg,1636203499915,1062864486646805,189,0,-1
OrientationDeg,1636203499932,1062864502529617,189,0,-1
OrientationDeg,1636203499947,1062864518410867,189,0,-1
OrientationDeg,1636203499963,1062864534292117,189,0,-1
OrientationDeg,1636203499979,1062864550174930,189,0,-1
OrientationDeg,1636203499995,1062864566057742,189,0,-1
OrientationDeg,1636203500010,1062864581938992,189,0,-1
OrientationDeg,1636203500026,1062864597821805,189,0,-1
OrientationDeg,1636203500042,1062864613703055,189,0,-1
OrientationDeg,1636203500058,1062864629585867,189,0,-1
OrientationDeg,1636203500074,1062864645468680,189,0,-1
OrientationDeg,1636203500090,1062864661349930,189,0,-1
OrientationDeg,1636203500106,1062864677232742,189,0,-1
OrientationDeg,1636203500122,1062864693113992,189,0,-1
OrientationDeg,1636203500138,1062864708998367,189,0,-1
OrientationDeg,1636203500153,1062864724878055,189,0,-1
OrientationDeg,1636203500169,1062864740762430,189,0,-1
OrientationDeg,1636203500185,1062864756642117,189,0,0
OrientationDeg,1636203500201,1062864772524930,189,0,0
OrientationDeg,1636203500218,1062864788407742,189,0,0
OrientationDeg,1636203500233,1062864804288992,189,0,0
OrientationDeg,1636203500250,1062864820174930,189,0,0
OrientationDeg,1636203500265,1062864836053055,189,0,0
OrientationDeg,1636203500280,1062864851935867,189,0,0
OrientationDeg,1636203500296,1062864867817117,189,0,0
OrientationDeg,1636203500312,1062864883699930,189,0,0
OrientationDeg,1636203500329,1062864899582742,189,0,0
OrientationDeg,1636203500344,1062864915463992,189,0,0
OrientationDeg,1636203500360,1062864931345242,189,0,0
OrientationDeg,1636203500376,1062864947228055,189,0,0
OrientationDeg,1636203500392,1062864963109305,189,0,0
OrientationDeg,1636203500408,1062864978995242,189,0,0
OrientationDeg,1636203500423,1062864994874930,189,0,0
OrientationDeg,1636203500439,1062865010756180,189,0,0
OrientationDeg,1636203500456,1062865026638992,189,0,0
OrientationDeg,1636203500472,1062865042520242,189,0,0
OrientationDeg,1636203500488,1062865058407742,189,0,0
OrientationDeg,1636203500503,1062865074284305,189,0,0
OrientationDeg,1636203500519,1062865090165555,189,0,0
OrientationDeg,1636203500535,1062865106048367,189,0,0
OrientationDeg,1636203500550,1062865121931180,189,0,0
OrientationDeg,1636203500567,1062865137812430,189,0,0
OrientationDeg,1636203500582,1062865153695242,189,0,0
OrientationDeg,1636203500599,1062865169576492,189,0,0
OrientationDeg,1636203500614,1062865185459305,189,0,0
OrientationDeg,1636203500631,1062865201342117,189,0,0
Raw,1636203500000,1320238718000000000,18,,-2176,-0.5189546067772426,333.564095198152,127.58926710557877,0.0,0,7,220.0,1,27533,400,0.0,-225.11529360199347,0.1,16,0.0,0.0,1.57542003E9,,,,0,,1,0.0,,,,,,,
Raw,1636203500000,1320238718000000000,18,,-2176,-0.5189546067772426,333.564095198152,127.58926710557877,0.0,0,14,220.0,1,803356,400,0.0,-368.56896773097105,0.1,16,0.0,0.0,1.57542003E9,,,,0,,1,0.0,,,,,,,
Raw,1636203500000,1320238718000000000,18,,-2176,-0.5189546067772426,333.564095198152,127.58926710557877,0.0,0,5,220.0,33,9810394,25,27.0,-568.313121649596,0.1,16,0.0,0.0,1.60256256E9,,,,0,,3,0.0,,,,,,,
OrientationDeg,1636203500647,1062865217224930,189,0,0
OrientationDeg,1636203500662,1062865233106180,189,0,0
OrientationDeg,1636203500677,1062865248988992,189,0,0
OrientationDeg,1636203500694,1062865264870242,189,0,0
OrientationDeg,1636203500710,1062865280753055,189,0,0
OrientationDeg,1636203500725,1062865296640555,189,0,0
OrientationDeg,1636203500742,1062865312517117,189,0,0
OrientationDeg,1636203500757,1062865328399930,189,0,0
OrientationDeg,1636203500773,1062865344281180,189,0,0
Status,1636203500858,26,0,1,7,1575420032,0.00,325.24,25.70,0,1,1,
Status,1636203500858,26,1,1,14,1575420032,0.00,242.38,15.88,0,1,1,
Status,1636203500858,26,2,3,5,1602562560,27.00,324.75,25.94,1,1,0,
Status,1636203500858,26,3,1,4,1575420032,0.00,98.33,77.20,0,1,1,
Status,1636203500858,26,4,1,8,1575420032,0.00,85.08,58.76,0,1,1,
Status,1636203500858,26,5,1,9,1575420032,0.00,331.64,58.12,0,1,1,
Status,1636203500858,26,6,1,27,1575420032,0.00,53.88,33.51,0,1,1,
Status,1636203500858,26,7,1,3,1575420032,0.00,189.33,24.13,0,1,0,
Status,1636203500858,26,8,1,21,1575420032,0.00,141.93,13.77,0,1,1,
Status,1636203500858,26,9,1,22,1575420032,0.00,171.56,12.33,0,1,1,
Status,1636203500858,26,10,1,16,1575420032,0.00,34.51,12.34,0,1,1,
Status,1636203500858,26,11,1,1,1575420032,0.00,167.06,9.45,0,1,1,
Status,1636203500858,26,12,1,30,1575420032,0.00,300.80,6.45,0,1,1,
Status,1636203500858,26,13,3,4,1605374976,0.00,268.96,68.77,0,0,0,
Status,1636203500858,26,14,3,3,1604812544,0.00,175.46,38.50,0,0,0,
Status,1636203500858,26,15,3,15,1602000000,0.00,313.50,28.10,0,1,1,
Status,1636203500858,26,16,3,17,1604249984,0.00,136.47,24.23,0,1,1,
Status,1636203500858,26,17,3,14,1598062464,0.00,11.08,23.54,0,0,0,
Status,1636203500858,26,18,3,24,1603124992,0.00,80.72,20.90,0,0,1,
Status,1636203500858,26,19,5,6,1561097984,0.00,93.83,54.53,0,0,1,
Status,1636203500858,26,20,5,7,1561097984,0.00,23.52,54.80,0,0,1,
Status,1636203500858,26,21,5,8,1561097984,0.00,156.24,5.15,0,0,0,
Status,1636203500858,26,22,5,9,1561097984,0.00,67.81,61.43,0,0,1,
Status,1636203500858,26,23,5,10,1561097984,0.00,5.31,67.45,0,1,1,
Status,1636203500858,26,24,5,13,1561097984,0.00,165.81,9.27,0,1,0,
Status,1636203500858,26,25,5,1,1561097984,0.00,169.10,26.75,0,0,0,
OrientationDeg,1636203500789,1062865360162430,189,0,0
OrientationDeg,1636203500805,1062865376045242,189,0,0
OrientationDeg,1636203500820,1062865391926492,189,0,0
OrientationDeg,1636203500836,1062865407809305,189,0,0
OrientationDeg,1636203500852,1062865423698367,189,0,0
OrientationDeg,1636203500868,1062865439573367,189,0,0
OrientationDeg,1636203500884,1062865455456180,189,0,0
OrientationDeg,1636203500900,1062865471337430,189,0,0
OrientationDeg,1636203500916,1062865487220242,189,0,0
OrientationDeg,1636203500932,1062865503103055,189,0,0
OrientationDeg,1636203500947,1062865518984305,189,0,0
OrientationDeg,1636203500963,1062865534870242,189,0,0
OrientationDeg,1636203500980,1062865550748367,189,0,0
OrientationDeg,1636203500995,1062865566629617,189,0,0
OrientationDeg,1636203501011,1062865582538992,189,0,0
OrientationDeg,1636203501027,1062865598395242,189,0,0
OrientationDeg,1636203501043,1062865614278055,189,0,0
OrientationDeg,1636203501059,1062865630159305,189,0,0
OrientationDeg,1636203501076,1062865646040555,189,0,0
OrientationDeg,1636203501090,1062865661923367,189,0,0
OrientationDeg,1636203501106,1062865677806180,189,0,0
OrientationDeg,1636203501123,1062865693687430,189,0,0
OrientationDeg,1636203501138,1062865709568680,189,0,0
OrientationDeg,1636203501154,1062865725451492,189,0,0
OrientationDeg,1636203501170,1062865741332742,189,0,0
OrientationDeg,1636203501186,1062865757215555,189,0,0
OrientationDeg,1636203501202,1062865773099930,189,0,0
OrientationDeg,1636203501217,1062865788979617,189,0,0
OrientationDeg,1636203501234,1062865804862430,189,0,0
OrientationDeg,1636203501249,1062865820743680,189,0,0
OrientationDeg,1636203501265,1062865836626492,189,0,0
OrientationDeg,1636203501281,1062865852509305,189,0,0
OrientationDeg,1636203501297,1062865868390555,189,0,0
OrientationDeg,1636203501313,1062865884271805,189,0,0
OrientationDeg,1636203501330,1062865900154617,189,0,0
OrientationDeg,1636203501345,1062865916037430,189,0,0
OrientationDeg,1636203501361,1062865931920242,189,-1,0
OrientationDeg,1636203501377,1062865947801492,189,-1,0
OrientationDeg,1636203501392,1062865963682742,189,-1,0
OrientationDeg,1636203501408,1062865979565555,189,-1,0
OrientationDeg,1636203501424,1062865995448367,189,-1,0
OrientationDeg,1636203501440,1062866011329617,189,-1,0
OrientationDeg,1636203501456,1062866027212430,189,-1,0
OrientationDeg,1636203501472,1062866043093680,189,-1,0
OrientationDeg,1636203501488,1062866058974930,189,-1,0
OrientationDeg,1636203501503,1062866074857742,189,-1,0
OrientationDeg,1636203501520,1062866090746805,189,-1,0
OrientationDeg,1636203501536,1062866106621805,189,-1,0
OrientationDeg,1636203501551,1062866122504617,189,-1,0
OrientationDeg,1636203501568,1062866138385867,189,-1,0
OrientationDeg,1636203501583,1062866154268680,189,-1,0
OrientationDeg,1636203501599,1062866170151492,189,-1,0
OrientationDeg,1636203501615,1062866186032742,189,-1,0
OrientationDeg,1636203501630,1062866201915555,189,-1,0
OrientationDeg,1636203501646,1062866217796805,189,-1,0
Raw,1636203501000,1320238719000000000,18,,-2176,-0.5189546067772426,333.564095198152,127.58926710557877,0.0,0,7,220.0,3,5028623,10,28.0,-225.16244804137386,0.1,16,0.0,0.0,1.57542003E9,,,,0,,1,0.0,,,,,,,
Raw,1636203501000,1320238719000000000,18,,-2176,-0.5189546067772426,333.564095198152,127.58926710557877,0.0,0,14,220.0,1,804496,400,0.0,-368.56896773097105,0.1,16,0.0,0.0,1.57542003E9,,,,0,,1,0.0,,,,,,,
Raw,1636203501000,1320238719000000000,18,,-2176,-0.5189546067772426,333.564095198152,127.58926710557877,0.0,0,5,220.0,33,9812278,25,26.0,-568.6839556204037,0.1,16,0.0,0.0,1.60256256E9,,,,0,,3,0.0,,,,,,,
OrientationDeg,1636203501662,1062866233679617,189,-1,0
OrientationDeg,1636203501678,1062866249560867,189,-1,0
OrientationDeg,1636203501695,1062866265443680,189,-1,0
OrientationDeg,1636203501711,1062866281324930,189,-1,0
OrientationDeg,1636203501726,1062866297207742,189,-1,0
OrientationDeg,1636203501743,1062866313088992,189,-1,0
OrientationDeg,1636203501757,1062866328971805,189,-1,0
OrientationDeg,1636203501773,1062866344854617,189,-1,0
OrientationDeg,1636203501789,1062866360735867,189,-1,0
OrientationDeg,1636203501805,1062866376618680,189,-1,0
Status,1636203500858,26,0,1,7,1575420032,28.00,325.24,25.70,0,1,1,
Status,1636203500858,26,1,1,14,1575420032,0.00,242.39,15.88,0,1,1,
Status,1636203500858,26,2,3,5,1602562560,26.00,324.75,25.94,1,1,0,
Status,1636203500858,26,3,1,4,1575420032,0.00,98.37,77.19,0,1,1,
Status,1636203500858,26,4,1,8,1575420032,0.00,85.06,58.76,0,1,1,
Status,1636203500858,26,5,1,9,1575420032,0.00,331.64,58.12,0,1,1,
Status,1636203500858,26,6,1,27,1575420032,0.00,53.87,33.50,0,1,1,
Status,1636203500858,26,7,1,3,1575420032,0.00,189.32,24.13,0,1,0,
Status,1636203500858,26,8,1,21,1575420032,0.00,141.92,13.77,0,1,1,
Status,1636203500858,26,9,1,22,1575420032,0.00,171.55,12.33,0,1,1,
Status,1636203500858,26,10,1,16,1575420032,0.00,34.51,12.34,0,1,1,
Status,1636203500858,26,11,1,1,1575420032,0.00,167.05,9.45,0,1,1,
Status,1636203500858,26,12,1,30,1575420032,0.00,300.80,6.46,0,1,1,
Status,1636203500858,26,13,3,4,1605374976,0.00,268.93,68.77,0,0,0,
Status,1636203500858,26,14,3,3,1604812544,0.00,175.46,38.49,0,0,0,
Status,1636203500858,26,15,3,15,1602000000,0.00,313.51,28.10,0,1,1,
Status,1636203500858,26,16,3,17,1604249984,0.00,136.47,24.24,0,1,1,
Status,1636203500858,26,17,3,14,1598062464,0.00,11.08,23.54,0,0,0,
Status,1636203500858,26,18,3,24,1603124992,0.00,80.71,20.90,0,0,1,
Status,1636203500858,26,19,5,6,1561097984,0.00,93.84,54.53,0,0,1,
Status,1636203500858,26,20,5,7,1561097984,0.00,23.52,54.80,0,0,1,
Status,1636203500858,26,21,5,8,1561097984,0.00,156.24,5.15,0,0,0,
Status,1636203500858,26,22,5,9,1561097984,0.00,67.81,61.43,0,0,1,
Status,1636203500858,26,23,5,10,1561097984,0.00,5.31,67.45,0,1,1,
Status,1636203500858,26,24,5,13,1561097984,0.00,165.81,9.27,0,1,0,
Status,1636203500858,26,25,5,1,1561097984,0.00,169.10,26.76,0,0,0,
OrientationDeg,1636203501821,1062866392499930,189,-1,0
OrientationDeg,1636203501837,1062866408382742,189,-1,0
OrientationDeg,1636203501854,1062866424265555,189,-1,0
OrientationDeg,1636203501870,1062866440146805,189,-1,0
OrientationDeg,1636203501885,1062866456029617,189,-1,0
OrientationDeg,1636203501900,1062866471910867,189,-1,0
OrientationDeg,1636203501917,1062866487792117,189,-1,0
OrientationDeg,1636203501932,1062866503674930,189,-1,0
OrientationDeg,1636203501948,1062866519557742,189,-1,0
OrientationDeg,1636203501964,1062866535438992,189,-1,0
OrientationDeg,1636203501980,1062866551321805,189,-1,0
OrientationDeg,1636203501996,1062866567203055,189,-1,0
OrientationDeg,1636203502012,1062866583085867,189,-1,0
OrientationDeg,1636203502027,1062866598967117,189,-1,0
OrientationDeg,1636203502043,1062866614849930,189,-1,0
OrientationDeg,1636203502059,1062866630732742,189,-1,0
OrientationDeg,1636203502075,1062866646613992,189,-1,0
OrientationDeg,1636203502091,1062866662496805,189,-1,0
OrientationDeg,1636203502108,1062866678378055,189,-1,0
OrientationDeg,1636203502123,1062866694260867,189,-1,0
OrientationDeg,1636203502139,1062866710142117,189,-1,0
OrientationDeg,1636203502155,1062866726028055,189,-1,0
OrientationDeg,1636203502171,1062866741906180,189,-1,0
OrientationDeg,1636203502187,1062866757788992,189,-1,0
OrientationDeg,1636203502203,1062866773671805,189,-1,0
OrientationDeg,1636203502218,1062866789553055,189,-1,0
OrientationDeg,1636203502234,1062866805434305,189,-1,0
OrientationDeg,1636203502251,1062866821317117,189,-1,0
OrientationDeg,1636203502266,1062866837198367,189,-1,0
OrientationDeg,1636203502283,1062866853082742,189,-1,0
OrientationDeg,1636203502297,1062866868963992,189,-1,0
OrientationDeg,1636203502314,1062866884845242,189,-1,0
OrientationDeg,1636203502329,1062866900728055,189,-1,0
OrientationDeg,1636203502345,1062866916609305,189,-1,0
OrientationDeg,1636203502361,1062866932492117,189,-1,0
OrientationDeg,1636203502378,1062866948374930,189,-1,0
OrientationDeg,1636203502393,1062866964259305,189,-1,0
OrientationDeg,1636203502409,1062866980138992,189,-1,0
OrientationDeg,1636203502425,1062866996020242,189,-1,0
OrientationDeg,1636203502441,1062867011903055,189,-1,0
OrientationDeg,1636203502456,1062867027785867,189,-1,0
OrientationDeg,1636203502473,1062867043667117,189,-1,0
OrientationDeg,1636203502488,1062867059548367,189,-1,0
OrientationDeg,1636203502504,1062867075431180,189,-1,0
OrientationDeg,1636203502521,1062867091315555,189,-1,0
OrientationDeg,1636203502536,1062867107195242,189,-1,0
OrientationDeg,1636203502552,1062867123076492,189,-1,0
OrientationDeg,1636203502567,1062867138959305,189,-1,0
OrientationDeg,1636203502583,1062867154842117,189,-1,0
OrientationDeg,1636203502599,1062867170729617,189,-1,0
OrientationDeg,1636203502615,1062867186604617,189,-1,0
OrientationDeg,1636203502631,1062867202487430,189,-1,0
OrientationDeg,1636203502647,1062867218370242,189,-1,0
Raw,1636203502000,1320238720000000000,18,,-2176,-0.5189546067772426,333.564095198152,127.58926710557877,0.0,0,7,220.0,3,5029326,10,29.0,-224.90584016195498,0.1,16,0.0,0.0,1.57542003E9,,,,0,,1,0.0,,,,,,,
Raw,1636203502000,1320238720000000000,18,,-2176,-0.5189546067772426,333.564095198152,127.58926710557877,0.0,0,14,220.0,1,805800,400,0.0,-368.56896773097105,0.1,16,0.0,0.0,1.57542003E9,,,,0,,1,0.0,,,,,,,
Raw,1636203502000,1320238720000000000,18,,-2176,-0.5189546067772426,333.564095198152,127.58926710557877,0.0,0,5,220.0,33,9814166,25,25.0,-568.5258481134703,0.1,16,0.0,0.0,1.60256256E9,,,,0,,3,0.0,,,,,,,
Status,1636203500858,26,0,1,7,1575420032,29.00,325.25,25.71,0,1,1,
Status,1636203500858,26,1,1,14,1575420032,0.00,242.39,15.89,0,1,1,
Status,1636203500858,26,2,3,5,1602562560,25.00,324.74,25.95,1,1,0,
Status,1636203500858,26,3,1,4,1575420032,0.00,98.41,77.19,0,1,1,
Status,1636203500858,26,4,1,8,1575420032,0.00,85.04,58.76,0,1,1,
Status,1636203500858,26,5,1,9,1575420032,0.00,331.63,58.13,0,1,1,
Status,1636203500858,26,6,1,27,1575420032,0.00,53.87,33.50,0,1,1,
Status,1636203500858,26,7,1,3,1575420032,0.00,189.32,24.12,0,1,0,
Status,1636203500858,26,8,1,21,1575420032,0.00,141.91,13.77,0,1,1,
Status,1636203500858,26,9,1,22,1575420032,0.00,171.55,12.32,0,1,1,
Status,1636203500858,26,10,1,16,1575420032,0.00,34.51,12.33,0,1,1,
Status,1636203500858,26,11,1,1,1575420032,0.00,167.05,9.45,0,1,1,
Status,1636203500858,26,12,1,30,1575420032,0.00,300.81,6.46,0,1,1,
Status,1636203500858,26,13,3,4,1605374976,0.00,268.90,68.77,0,0,0,
Status,1636203500858,26,14,3,3,1604812544,0.00,175.46,38.48,0,0,0,
Status,1636203500858,26,15,3,15,1602000000,0.00,313.52,28.09,0,1,1,
Status,1636203500858,26,16,3,17,1604249984,0.00,136.46,24.24,0,1,1,
Status,1636203500858,26,17,3,14,1598062464,0.00,11.09,23.54,0,0,0,
Status,1636203500858,26,18,3,24,1603124992,0.00,80.70,20.90,0,0,1,
Status,1636203500858,26,19,5,6,1561097984,0.00,93.85,54.53,0,0,1,
Status,1636203500858,26,20,5,7,1561097984,0.00,23.51,54.79,0,0,1,
Status,1636203500858,26,21,5,8,1561097984,0.00,156.24,5.15,0,0,0,
Status,1636203500858,26,22,5,9,1561097984,0.00,67.82,61.43,0,0,1,
Status,1636203500858,26,23,5,10,1561097984,0.00,5.31,67.44,0,1,1,
Status,1636203500858,26,24,5,13,1561097984,0.00,165.80,9.27,0,1,0,
Status,1636203500858,26,25,5,1,1561097984,0.00,169.11,26.76,0,0,0,
OrientationDeg,1636203502663,1062867234251492,189,-1,0
OrientationDeg,1636203502680,1062867250134305,189,-1,0
OrientationDeg,1636203502695,1062867266015555,189,-1,0
OrientationDeg,1636203502710,1062867281898367,189,-1,0
OrientationDeg,1636203502727,1062867297779617,189,-1,0
OrientationDeg,1636203502742,1062867313662430,189,-1,0
OrientationDeg,1636203502758,1062867329545242,189,-1,0
OrientationDeg,1636203502774,1062867345426492,189,-1,0
OrientationDeg,1636203502790,1062867361309305,189,-1,0
OrientationDeg,1636203502807,1062867377190555,189,-1,0
OrientationDeg,1636203502822,1062867393073367,189,-1,0
OrientationDeg,1636203502838,1062867408954617,189,-1,0
OrientationDeg,1636203502853,1062867424837430,189,-1,0
OrientationDeg,1636203502870,1062867440718680,189,-1,0
OrientationDeg,1636203502886,1062867456601492,189,-1,0
OrientationDeg,1636203502901,1062867472484305,189,-1,0
OrientationDeg,1636203502917,1062867488365555,189,-1,0
OrientationDeg,1636203502933,1062867504248367,189,-1,0
OrientationDeg,1636203502949,1062867520131180,189,-1,0
OrientationDeg,1636203502965,1062867536010867,189,-1,0
OrientationDeg,1636203502980,1062867551895242,189,-1,0
OrientationDeg,1636203502997,1062867567803055,189,-1,0
OrientationDeg,1636203503012,1062867583659305,189,-1,0
OrientationDeg,1636203503029,1062867599543680,189,-1,0
OrientationDeg,1636203503044,1062867615423367,189,-1,0
OrientationDeg,1636203503060,1062867631304617,189,-1,0
OrientationDeg,1636203503077,1062867647185867,189,-1,0
OrientationDeg,1636203503092,1062867663068680,189,-1,0
OrientationDeg,1636203503107,1062867678960867,189,-1,0
OrientationDeg,1636203503124,1062867694834305,189,-1,0
OrientationDeg,1636203503140,1062867710713992,189,-1,0
OrientationDeg,1636203503155,1062867726598367,189,-1,0
OrientationDeg,1636203503171,1062867742479617,189,-1,0
OrientationDeg,1636203503187,1062867758360867,189,-1,0
OrientationDeg,1636203503203,1062867774243680,189,-1,0
OrientationDeg,1636203503219,1062867790124930,189,-1,0
OrientationDeg,1636203503235,1062867806007742,189,-1,0
OrientationDeg,1636203503251,1062867821890555,189,-1,0
OrientationDeg,1636203503266,1062867837773367,189,-1,0
OrientationDeg,1636203503282,1062867853654617,189,-1,0
OrientationDeg,1636203503298,1062867869535867,189,-1,0
OrientationDeg,1636203503314,1062867885423367,189,-1,0
OrientationDeg,1636203503330,1062867901301492,189,-1,0
OrientationDeg,1636203503346,1062867917184305,189,-1,0
OrientationDeg,1636203503363,1062867933065555,189,-1,0
OrientationDeg,1636203503378,1062867948948367,189,-1,0
OrientationDeg,1636203503393,1062867964829617,189,-1,0
OrientationDeg,1636203503410,1062867980712430,189,-1,0
OrientationDeg,1636203503426,1062867996595242,189,-1,0
OrientationDeg,1636203503441,1062868012474930,189,-1,0
OrientationDeg,1636203503457,1062868028357742,189,-1,0
OrientationDeg,1636203503473,1062868044240555,189,-1,0
OrientationDeg,1636203503489,1062868060121805,189,-1,0
OrientationDeg,1636203503505,1062868076003055,189,-1,0
OrientationDeg,1636203503520,1062868091885867,189,-1,0
OrientationDeg,1636203503536,1062868107768680,189,-1,0
OrientationDeg,1636203503552,1062868123649930,189,-1,0
OrientationDeg,1636203503568,1062868139531180,189,-1,0
OrientationDeg,1636203503585,1062868155426492,189,-1,0
OrientationDeg,1636203503600,1062868171296805,189,-1,0
OrientationDeg,1636203503616,1062868187178055,189,-1,0
OrientationDeg,1636203503632,1062868203062430,189,-1,0
OrientationDeg,1636203503648,1062868218943680,189,-1,0
Status,1636203500858,26,0,1,7,1575420032,29.00,325.26,25.71,1,1,1,
Status,1636203500858,26,1,1,14,1575420032,0.00,242.40,15.89,0,1,1,
Status,1636203500858,26,2,3,5,1602562560,26.00,324.74,25.96,1,1,0,
Status,1636203500858,26,3,1,4,1575420032,0.00,98.45,77.19,0,1,1,
Status,1636203500858,26,4,1,8,1575420032,0.00,85.03,58.76,0,1,1,
Status,1636203500858,26,5,1,9,1575420032,0.00,331.63,58.14,0,1,1,
Status,1636203500858,26,6,1,27,1575420032,0.00,53.86,33.49,0,1,1,
Status,1636203500858,26,7,1,3,1575420032,0.00,189.32,24.12,0,1,0,
Status,1636203500858,26,8,1,21,1575420032,0.00,141.91,13.77,0,1,1,
Status,1636203500858,26,9,1,22,1575420032,0.00,171.54,12.32,0,1,1,
Status,1636203500858,26,10,1,16,1575420032,0.00,34.52,12.33,0,1,1,
Status,1636203500858,26,11,1,1,1575420032,0.00,167.04,9.45,0,1,1,
Status,1636203500858,26,12,1,30,1575420032,0.00,300.81,6.46,0,1,1,
Status,1636203500858,26,13,3,4,1605374976,0.00,268.87,68.77,0,0,0,
Status,1636203500858,26,14,3,3,1604812544,0.00,175.46,38.47,0,0,0,
Status,1636203500858,26,15,3,15,1602000000,0.00,313.53,28.09,0,1,1,
Status,1636203500858,26,16,3,17,1604249984,0.00,136.45,24.25,0,1,1,
Status,1636203500858,26,17,3,14,1598062464,0.00,11.10,23.53,0,0,0,
Status,1636203500858,26,18,3,24,1603124992,0.00,80.69,20.90,0,0,1,
Status,1636203500858,26,19,5,6,1561097984,0.00,93.85,54.54,0,0,1,
Status,1636203500858,26,20,5,7,1561097984,0.00,23.51,54.79,0,0,1,
Status,1636203500858,26,21,5,8,1561097984,0.00,156.24,5.15,0,0,0,
Status,1636203500858,26,22,5,9,1561097984,0.00,67.83,61.43,0,0,1,
Status,1636203500858,26,23,5,10,1561097984,0.00,5.31,67.44,0,1,1,
Status,1636203500858,26,24,5,13,1561097984,0.00,165.80,9.27,0,1,0,
Status,1636203500858,26,25,5,1,1561097984,0.00,169.11,26.76,0,0,0,
Raw,1636203503000,1320238721000000000,18,,-2176,-0.5189546067772426,333.564095198152,127.58926710557877,0.0,0,7,220.0,3,5030079,10,29.0,-225.22605170379393,0.1,16,0.0,0.0,1.57542003E9,,,,0,,1,0.0,,,,,,,
Raw,1636203503000,1320238721000000000,18,,-2176,-0.5189546067772426,333.564095198152,127.58926710557877,0.0,0,14,220.0,1,807103,400,0.0,-368.56896773097105,0.1,16,0.0,0.0,1.57542003E9,,,,0,,1,0.0,,,,,,,
Raw,1636203503000,1320238721000000000,18,,-2176,-0.5189546067772426,333.564095198152,127.58926710557877,0.0,0,5,220.0,33,9816057,25,26.0,-568.568968342634,0.1,16,0.0,0.0,1.60256256E9,,,,0,,3,0.0,,,,,,,
OrientationDeg,1636203503664,1062868234824930,189,-1,0
OrientationDeg,1636203503680,1062868250707742,189,-1,0
OrientationDeg,1636203503695,1062868266588992,189,-1,0
OrientationDeg,1636203503711,1062868282470242,189,-1,0
OrientationDeg,1636203503727,1062868298353055,189,-1,0
OrientationDeg,1636203503744,1062868314237430,189,-1,0
OrientationDeg,1636203503759,1062868330118680,189,-1,0
OrientationDeg,1636203503774,1062868345999930,189,-1,0
OrientationDeg,1636203503790,1062868361881180,189,-1,0
OrientationDeg,1636203503806,1062868377763992,189,-1,0
OrientationDeg,1636203503822,1062868393645242,189,-1,0
OrientationDeg,1636203503838,1062868409529617,189,-1,0
OrientationDeg,1636203503854,1062868425410867,189,-1,0
OrientationDeg,1636203503871,1062868441296805,189,-1,0
OrientationDeg,1636203503886,1062868457174930,189,-1,0
OrientationDeg,1636203503902,1062868473057742,189,-1,0
OrientationDeg,1636203503918,1062868488938992,189,-1,0
OrientationDeg,1636203503934,1062868504821805,189,-1,0
OrientationDeg,1636203503949,1062868520703055,189,-1,0
OrientationDeg,1636203503965,1062868536585867,189,-1,0
OrientationDeg,1636203503981,1062868552467117,189,-1,0
OrientationDeg,1636203503998,1062868568349930,189,-1,0
OrientationDeg,1636203504013,1062868584232742,189,-1,0
OrientationDeg,1636203504029,1062868600113992,189,-1,0
OrientationDeg,1636203504044,1062868615996805,189,-1,0
OrientationDeg,1636203504060,1062868631878055,189,-1,0
OrientationDeg,1636203504076,1062868647760867,189,-1,0
OrientationDeg,1636203504092,1062868663642117,189,-1,0
OrientationDeg,1636203504109,1062868679524930,189,-1,0
OrientationDeg,1636203504124,1062868695406180,189,-1,0
OrientationDeg,1636203504140,1062868711293680,189,-1,0
OrientationDeg,1636203504156,1062868727171805,189,-1,0
OrientationDeg,1636203504173,1062868743053055,189,-1,0
OrientationDeg,1636203504187,1062868758934305,189,-1,0
OrientationDeg,1636203504203,1062868774817117,189,-1,0
OrientationDeg,1636203504219,1062868790698367,189,-1,0
OrientationDeg,1636203504235,1062868806582742,189,-1,0
OrientationDeg,1636203504251,1062868822463992,189,-1,0
OrientationDeg,1636203504267,1062868838351492,189,-1,0
OrientationDeg,1636203504284,1062868854228055,189,-1,0
OrientationDeg,1636203504299,1062868870118680,189,-1,0
OrientationDeg,1636203504314,1062868885992117,189,-1,0
OrientationDeg,1636203504330,1062868901874930,189,-1,0
OrientationDeg,1636203504347,1062868917756180,189,-1,0
OrientationDeg,1636203504362,1062868933638992,189,-1,0
OrientationDeg,1636203504378,1062868949523367,189,-1,0
OrientationDeg,1636203504394,1062868965403055,189,-1,0
OrientationDeg,1636203504410,1062868981285867,189,-1,0
OrientationDeg,1636203504426,1062868997167117,189,-1,0
OrientationDeg,1636203504442,1062869013048367,189,-1,0
OrientationDeg,1636203504457,1062869028931180,189,-1,0
OrientationDeg,1636203504474,1062869044812430,189,-1,0
OrientationDeg,1636203504489,1062869060695242,189,-1,0
OrientationDeg,1636203504505,1062869076576492,189,-1,0
OrientationDeg,1636203504522,1062869092459305,189,-1,0
OrientationDeg,1636203504538,1062869108340555,189,-1,0
OrientationDeg,1636203504553,1062869124223367,189,-1,0
OrientationDeg,1636203504569,1062869140104617,189,-1,0
OrientationDeg,1636203504585,1062869155988992,189,-1,0
OrientationDeg,1636203504600,1062869171870242,189,-1,0
OrientationDeg,1636203504616,1062869187751492,189,-1,0
OrientationDeg,1636203504632,1062869203634305,189,-1,0
OrientationDeg,1636203504648,1062869219517117,189,-1,0
Raw,1636203504000,1320238722000000000,18,,-2176,-0.5189546067772426,333.564095198152,127.58926710557877,0.0,0,7,220.0,3,5030832,10,28.0,-225.11968006147072,0.1,16,0.0,0.0,1.57542003E9,,,,0,,1,0.0,,,,,,,
Raw,1636203504000,1320238722000000000,18,,-2176,-0.5189546067772426,333.564095198152,127.58926710557877,0.0,0,14,220.0,3,2808536,25,26.0,-368.3068767772056,0.1,16,0.0,0.0,1.57542003E9,,,,0,,1,0.0,,,,,,,
Raw,1636203504000,1320238722000000000,18,,-2176,-0.5189546067772426,333.564095198152,127.58926710557877,0.0,0,5,220.0,33,9817942,25,27.0,-568.1665128704395,0.1,16,0.0,0.0,1.60256256E9,,,,0,,3,0.0,,,,,,,
OrientationDeg,1636203504664,1062869235398367,189,-1,0
OrientationDeg,1636203504681,1062869251281180,189,-1,0
OrientationDeg,1636203504697,1062869267171805,189,-1,0
OrientationDeg,1636203504712,1062869283045242,189,-1,0
OrientationDeg,1636203504727,1062869298926492,189,-1,0
OrientationDeg,1636203504743,1062869314807742,189,-1,0
OrientationDeg,1636203504759,1062869330690555,189,-1,0
OrientationDeg,1636203504775,1062869346573367,189,-1,0
OrientationDeg,1636203504791,1062869362454617,189,-1,0
OrientationDeg,1636203504807,1062869378337430,189,-1,0
Status,1636203500858,26,0,1,7,1575420032,28.00,325.26,25.71,1,1,1,
Status,1636203500858,26,1,1,14,1575420032,26.00,242.40,15.90,0,1,1,
Status,1636203500858,26,2,3,5,1602562560,27.00,324.73,25.96,1,1,0,
Status,1636203500858,26,3,1,4,1575420032,0.00,98.49,77.19,0,1,1,
Status,1636203500858,26,4,1,8,1575420032,0.00,85.01,58.76,0,1,1,
Status,1636203500858,26,5,1,9,1575420032,0.00,331.63,58.15,0,1,1,
Status,1636203500858,26,6,1,27,1575420032,0.00,53.85,33.49,0,1,1,
Status,1636203500858,26,7,1,3,1575420032,0.00,189.31,24.11,0,1,0,
Status,1636203500858,26,8,1,21,1575420032,0.00,141.90,13.77,0,1,1,
Status,1636203500858,26,9,1,22,1575420032,0.00,171.54,12.31,0,1,1,
Status,1636203500858,26,10,1,16,1575420032,0.00,34.52,12.32,0,1,1,
Status,1636203500858,26,11,1,1,1575420032,0.00,167.03,9.46,0,1,1,
Status,1636203500858,26,12,1,30,1575420032,0.00,300.82,6.47,0,1,1,
Status,1636203500858,26,13,3,4,1605374976,0.00,268.84,68.77,0,0,0,
Status,1636203500858,26,14,3,3,1604812544,0.00,175.46,38.46,0,0,0,
Status,1636203500858,26,15,3,15,1602000000,0.00,313.54,28.09,0,1,1,
Status,1636203500858,26,16,3,17,1604249984,0.00,136.44,24.25,0,1,1,
Status,1636203500858,26,17,3,14,1598062464,0.00,11.11,23.53,0,0,0,
Status,1636203500858,26,18,3,24,1603124992,0.00,80.68,20.90,0,0,1,
Status,1636203500858,26,19,5,6,1561097984,0.00,93.86,54.54,0,0,1,
Status,1636203500858,26,20,5,7,1561097984,0.00,23.51,54.79,0,0,1,
Status,1636203500858,26,21,5,8,1561097984,0.00,156.23,5.15,0,0,0,
Status,1636203500858,26,22,5,9,1561097984,0.00,67.84,61.44,0,0,1,
Status,1636203500858,26,23,5,10,1561097984,0.00,5.31,67.44,0,1,1,
Status,1636203500858,26,24,5,13,1561097984,0.00,165.80,9.27,0,1,0,
Status,1636203500858,26,25,5,1,1561097984,0.00,169.11,26.76,0,0,0,
OrientationDeg,1636203504824,1062869394218680,189,-1,0
OrientationDeg,1636203504839,1062869410101492,189,-1,0
OrientationDeg,1636203504855,1062869425982742,189,-1,0
OrientationDeg,1636203504870,1062869441865555,189,-1,0
OrientationDeg,1636203504887,1062869457748367,189,-1,0
OrientationDeg,1636203504902,1062869473629617,189,-1,0
OrientationDeg,1636203504918,1062869489512430,189,-1,0
OrientationDeg,1636203504934,1062869505395242,189,-1,0
OrientationDeg,1636203504951,1062869521276492,189,-1,0
OrientationDeg,1636203504966,1062869537157742,189,-1,0
OrientationDeg,1636203504982,1062869553067117,189,-1,0
OrientationDeg,1636203504997,1062869568921805,189,-1,0
OrientationDeg,1636203505013,1062869584806180,189,-1,0
OrientationDeg,1636203505029,1062869600687430,189,-1,0
OrientationDeg,1636203505045,1062869616568680,189,-1,0
OrientationDeg,1636203505061,1062869632451492,189,-1,0
OrientationDeg,1636203505077,1062869648332742,189,-1,0
OrientationDeg,1636203505093,1062869664215555,189,-1,0
OrientationDeg,1636203505109,1062869680098367,189,-1,0
OrientationDeg,1636203505124,1062869695979617,189,-1,0
OrientationDeg,1636203505141,1062869711867117,189,-1,0
OrientationDeg,1636203505156,1062869727745242,189,-1,0
OrientationDeg,1636203505172,1062869743626492,189,-1,0
OrientationDeg,1636203505188,1062869759509305,189,-1,0
OrientationDeg,1636203505204,1062869775390555,189,-1,0
OrientationDeg,1636203505221,1062869791273367,189,-1,0
OrientationDeg,1636203505236,1062869807154617,189,-1,0
OrientationDeg,1636203505253,1062869823049930,189,-1,0
OrientationDeg,1636203505267,1062869838918680,189,-1,0
OrientationDeg,1636203505284,1062869854801492,189,-1,0
OrientationDeg,1636203505299,1062869870682742,189,-1,0
OrientationDeg,1636203505315,1062869886565555,189,-1,0
OrientationDeg,1636203505331,1062869902448367,189,-1,0
OrientationDeg,1636203505347,1062869918329617,189,-1,0
OrientationDeg,1636203505363,1062869934210867,189,-1,0
OrientationDeg,1636203505379,1062869950093680,189,-1,0
OrientationDeg,1636203505394,1062869965974930,189,-1,0
OrientationDeg,1636203505411,1062869981863992,189,-1,0
OrientationDeg,1636203505427,1062869997738992,189,-1,0
OrientationDeg,1636203505442,1062870013621805,189,-1,0
OrientationDeg,1636203505458,1062870029504617,189,-1,0
OrientationDeg,1636203505474,1062870045385867,189,-1,0
OrientationDeg,1636203505490,1062870061268680,189,-1,0
OrientationDeg,1636203505507,1062870077149930,189,-1,0
OrientationDeg,1636203505523,1062870093032742,189,-1,0
OrientationDeg,1636203505537,1062870108913992,189,-1,0
OrientationDeg,1636203505554,1062870124796805,189,-1,0
OrientationDeg,1636203505570,1062870140679617,189,-1,0
OrientationDeg,1636203505585,1062870156562430,189,-1,0
OrientationDeg,1636203505602,1062870172443680,189,-1,0
OrientationDeg,1636203505618,1062870188326492,189,-1,0
OrientationDeg,1636203505634,1062870204207742,189,-1,0
OrientationDeg,1636203505649,1062870220088992,189,-1,0
OrientationDeg,1636203505664,1062870235971805,189,-1,0
OrientationDeg,1636203505681,1062870251854617,189,-1,0
Status,1636203500858,26,0,1,7,1575420032,29.00,325.27,25.72,1,1,1,
Status,1636203500858,26,1,1,14,1575420032,25.00,242.41,15.90,0,1,1,
Status,1636203500858,26,2,3,5,1602562560,26.00,324.72,25.97,1,1,0,
Status,1636203500858,26,3,1,4,1575420032,0.00,98.53,77.18,0,1,1,
Status,1636203500858,26,4,1,8,1575420032,0.00,84.99,58.76,0,1,1,
Status,1636203500858,26,5,1,9,1575420032,0.00,331.62,58.16,0,1,1,
Status,1636203500858,26,6,1,27,1575420032,0.00,53.85,33.48,0,1,1,
Status,1636203500858,26,7,1,3,1575420032,0.00,189.31,24.11,0,1,0,
Status,1636203500858,26,8,1,21,1575420032,0.00,141.89,13.78,0,1,1,
Status,1636203500858,26,9,1,22,1575420032,0.00,171.53,12.31,0,1,1,
Status,1636203500858,26,10,1,16,1575420032,0.00,34.52,12.31,0,1,1,
Status,1636203500858,26,11,1,1,1575420032,0.00,167.03,9.46,0,1,1,
Status,1636203500858,26,12,1,30,1575420032,0.00,300.83,6.47,0,1,1,
Status,1636203500858,26,13,3,4,1605374976,0.00,268.82,68.77,0,0,0,
Status,1636203500858,26,14,3,3,1604812544,0.00,175.46,38.45,0,0,0,
Status,1636203500858,26,15,3,15,1602000000,0.00,313.55,28.09,0,1,1,
Status,1636203500858,26,16,3,17,1604249984,0.00,136.44,24.26,0,1,1,
Status,1636203500858,26,17,3,14,1598062464,0.00,11.12,23.53,0,0,0,
Status,1636203500858,26,18,3,24,1603124992,0.00,80.67,20.90,0,0,1,
Status,1636203500858,26,19,5,6,1561097984,0.00,93.87,54.54,0,0,1,
Status,1636203500858,26,20,5,7,1561097984,0.00,23.51,54.79,0,0,1,
Status,1636203500858,26,21,5,8,1561097984,0.00,156.23,5.15,0,0,0,
Status,1636203500858,26,22,5,9,1561097984,0.00,67.84,61.44,0,0,1,
Status,1636203500858,26,23,5,10,1561097984,0.00,5.30,67.43,0,1,1,
Status,1636203500858,26,24,5,13,1561097984,0.00,165.80,9.27,0,1,0,
Status,1636203500858,26,25,5,1,1561097984,0.00,169.12,26.76,0,0,0,
Raw,1636203505000,1320238723000000000,18,,-2176,-0.5189546067772426,333.564095198152,127.58926710557877,0.0,0,7,220.0,3,5031588,10,29.0,-224.80933805345558,0.1,16,0.0,0.0,1.57542003E9,,,,0,,1,0.0,,,,,,,
Raw,1636203505000,1320238723000000000,18,,-2176,-0.5189546067772426,333.564095198152,127.58926710557877,0.0,0,14,220.0,3,2809716,25,25.0,-367.3451455368195,0.1,16,0.0,0.0,1.57542003E9,,,,0,,1,0.0,,,,,,,
Raw,1636203505000,1320238723000000000,18,,-2176,-0.5189546067772426,333.564095198152,127.58926710557877,0.0,0,5,220.0,33,9819820,25,26.0,-567.8330497649071,0.1,16,0.0,0.0,1.60256256E9,,,,0,,3,0.0,,,,,,,
OrientationDeg,1636203505696,1062870267735867,189,-1,0
OrientationDeg,1636203505712,1062870283618680,189,-1,0
OrientationDeg,1636203505728,1062870299501492,189,-1,0
OrientationDeg,1636203505744,1062870315382742,189,-1,0
OrientationDeg,1636203505760,1062870331265555,189,-1,0
OrientationDeg,1636203505776,1062870347153055,189,-1,0
OrientationDeg,1636203505792,1062870363028055,189,-1,0
OrientationDeg,1636203505807,1062870378910867,189,-1,0
OrientationDeg,1636203505823,1062870394793680,189,-1,0
OrientationDeg,1636203505839,1062870410674930,189,-1,0
OrientationDeg,1636203505855,1062870426557742,189,-1,0
OrientationDeg,1636203505872,1062870442438992,189,-1,0
OrientationDeg,1636203505888,1062870458328055,189,-1,0
OrientationDeg,1636203505903,1062870474203055,189,-1,0
OrientationDeg,1636203505919,1062870490085867,189,-1,0
OrientationDeg,1636203505934,1062870505968680,189,-1,0
OrientationDeg,1636203505950,1062870521849930,189,-1,0
OrientationDeg,1636203505967,1062870537731180,189,-1,0
OrientationDeg,1636203505982,1062870553613992,189,-1,0
OrientationDeg,1636203505999,1062870569496805,189,-1,0
OrientationDeg,1636203506014,1062870585378055,189,-1,0
OrientationDeg,1636203506030,1062870601260867,189,-1,0
OrientationDeg,1636203506046,1062870617142117,189,-1,0
OrientationDeg,1636203506062,1062870633024930,189,-1,0
OrientationDeg,1636203506077,1062870648906180,189,-1,0
OrientationDeg,1636203506093,1062870664788992,189,-1,0
OrientationDeg,1636203506110,1062870680671805,189,-1,0
