# 
# Header Description:
# 
# Version: v3.0.0.10 Platform: 10 Manufacturer: HUAWEI Model: STK-L22
# 
# Raw,utcTimeMillis,TimeNanos,LeapSecond,TimeUncertaintyNanos,FullBiasNanos,BiasNanos,BiasUncertaintyNanos,DriftNanosPerSecond,DriftUncertaintyNanosPerSecond,HardwareClockDiscontinuityCount,Svid,TimeOffsetNanos,State,ReceivedSvTimeNanos,ReceivedSvTimeUncertaintyNanos,Cn0DbHz,PseudorangeRateMetersPerSecond,PseudorangeRateUncertaintyMetersPerSecond,AccumulatedDeltaRangeState,AccumulatedDeltaRangeMeters,AccumulatedDeltaRangeUncertaintyMeters,CarrierFrequencyHz,CarrierCycles,CarrierPhase,CarrierPhaseUncertainty,MultipathIndicator,SnrInDb,ConstellationType,AgcDb,BasebandCn0DbHz,FullInterSignalBiasNanos,FullInterSignalBiasUncertaintyNanos,SatelliteInterSignalBiasNanos,SatelliteInterSignalBiasUncertaintyNanos,CodeType,ChipsetElapsedRealtimeNanos
# 
# UncalAccel,utcTimeMillis,elapsedRealtimeNanos,UncalAccelXMps2,UncalAccelYMps2,UncalAccelZMps2,BiasXMps2,BiasYMps2,BiasZMps2
# 
# UncalGyro,utcTimeMillis,elapsedRealtimeNanos,UncalGyroXRadPerSec,UncalGyroYRadPerSec,UncalGyroZRadPerSec,DriftXRadPerSec,DriftYRadPerSec,DriftZRadPerSec
# 
# UncalMag,utcTimeMillis,elapsedRealtimeNanos,UncalMagXMicroT,UncalMagYMicroT,UncalMagZMicroT,BiasXMicroT,BiasYMicroT,BiasZMicroT
# 
# OrientationDeg,utcTimeMillis,elapsedRealtimeNanos,yawDeg,rollDeg,pitchDeg
# 
# Fix,Provider,LatitudeDegrees,LongitudeDegrees,AltitudeMeters,SpeedMps,AccuracyMeters,BearingDegrees,UnixTimeMillis,SpeedAccuracyMps,BearingAccuracyDegrees,elapsedRealtimeNanos
# 
# Nav,Svid,Type,Status,MessageId,Sub-messageId,Data(Bytes)
# 
# Status,UnixTimeMillis,SignalCount,SignalIndex,ConstellationType,Svid,CarrierFrequencyHz,Cn0DbHz,AzimuthDegrees,ElevationDegrees,UsedInFix,HasAlmanacData,HasEphemerisData,BasebandCn0DbHz
# 
OrientationDeg,1636164827090,1024191661260867,308,-3,-15
OrientationDeg,1636164827106,1024191677143680,308,-3,-15
OrientationDeg,1636164827122,1024191693024930,308,-3,-15
OrientationDeg,1636164827138,1024191708907742,308,-3,-15
OrientationDeg,1636164827153,1024191724806180,308,-3,-14
OrientationDeg,1636164827169,1024191740671805,308,-3,-14
OrientationDeg,1636164827185,1024191756553055,308,-3,-14
OrientationDeg,1636164827202,1024191772437430,308,-4,-14
OrientationDeg,1636164827217,1024191788317117,308,-4,-14
OrientationDeg,1636164827233,1024191804201492,308,-4,-14
OrientationDeg,1636164827249,1024191820081180,308,-4,-14
OrientationDeg,1636164827264,1024191835963992,308,-4,-14
OrientationDeg,1636164827280,1024191851849930,308,-4,-14
OrientationDeg,1636164827297,1024191867728055,308,-4,-14
OrientationDeg,1636164827312,1024191883626492,308,-4,-14
OrientationDeg,1636164827328,1024191899492117,308,-4,-14
OrientationDeg,1636164827345,1024191915374930,308,-4,-14
OrientationDeg,1636164827361,1024191931256180,308,-4,-14
OrientationDeg,1636164827376,1024191947138992,308,-4,-14
OrientationDeg,1636164827392,1024191963020242,308,-4,-14
OrientationDeg,1636164827408,1024191978903055,308,-4,-13
OrientationDeg,1636164827423,1024191994784305,308,-4,-13
OrientationDeg,1636164827439,1024192010667117,308,-4,-13
OrientationDeg,1636164827455,1024192026549930,308,-4,-13
OrientationDeg,1636164827471,1024192042429617,308,-4,-14
OrientationDeg,1636164827487,1024192058313992,308,-4,-14
OrientationDeg,1636164827504,1024192074195242,308,-4,-14
OrientationDeg,1636164827520,1024192090076492,308,-4,-14
OrientationDeg,1636164827534,1024192105959305,308,-4,-14
OrientationDeg,1636164827550,1024192121842117,308,-4,-14
OrientationDeg,1636164827566,1024192137723367,308,-4,-14
OrientationDeg,1636164827582,1024192153606180,308,-4,-14
OrientationDeg,1636164827599,1024192169487430,308,-4,-14
OrientationDeg,1636164827614,1024192185370242,308,-4,-14
OrientationDeg,1636164827630,1024192201254617,308,-3,-15
OrientationDeg,1636164827647,1024192217134305,308,-3,-15
OrientationDeg,1636164827663,1024192233017117,308,-3,-15
OrientationDeg,1636164827677,1024192248928055,308,-3,-15
OrientationDeg,1636164827694,1024192264781180,308,-3,-15
OrientationDeg,1636164827709,1024192280662430,308,-3,-15
OrientationDeg,1636164827725,1024192296545242,308,-3,-15
OrientationDeg,1636164827741,1024192312426492,308,-3,-14
OrientationDeg,1636164827758,1024192328309305,308,-3,-14
OrientationDeg,1636164827773,1024192344190555,308,-3,-14
OrientationDeg,1636164827789,1024192360074930,308,-3,-14
OrientationDeg,1636164827804,1024192375954617,308,-3,-14
OrientationDeg,1636164827821,1024192391837430,308,-3,-14
Raw,1636164828999,1320200047000000000,18,,105689,0.1604628809291171,333.564095198152,143.3884928117963,0.0,0,23,220.0,3,6866469,25,18.0,97.29167120531201,0.1,16,0.0,0.0,1.57542003E9,,,,0,,1,0.0,,,,,,,
Raw,1636164828999,1320200047000000000,18,,105689,0.1604628809291171,333.564095198152,143.3884928117963,0.0,0,10,220.0,3,1916885,25,19.0,-88.6240272782743,0.1,16,0.0,0.0,1.57542003E9,,,,0,,1,0.0,,,,,,,
Raw,1636164828999,1320200047000000000,18,,105689,0.1604628809291171,333.564095198152,143.3884928117963,0.0,0,18,220.0,3,6547534,400,15.0,-289.33744680834934,0.1,16,0.0,0.0,1.57542003E9,,,,0,,1,0.0,,,,,,,
Raw,1636164828999,1320200047000000000,18,,105689,0.1604628809291171,333.564095198152,143.3884928117963,0.0,0,29,220.0,3,11262543,25,18.0,311.19956084294245,0.1,16,0.0,0.0,1.57542003E9,,,,0,,1,0.0,,,,,,,
Raw,1636164828999,1320200047000000000,18,,105689,0.1604628809291171,333.564095198152,143.3884928117963,0.0,0,8,220.0,33,2453216,25,18.0,-129.31197502848158,0.1,16,0.0,0.0,1.60537498E9,,,,0,,3,0.0,,,,,,,
Raw,1636164828999,1320200047000000000,18,,105689,0.1604628809291171,333.564095198152,143.3884928117963,0.0,0,32,220.0,3,18921618,400,10.0,-605.8731356053613,0.1,16,0.0,0.0,1.57542003E9,,,,0,,1,0.0,,,,,,,
OrientationDeg,1636164827836,1024192407718680,308,-3,-14
OrientationDeg,1636164827852,1024192423601492,308,-3,-14
OrientationDeg,1636164827868,1024192439482742,308,-3,-14
OrientationDeg,1636164827885,1024192455365555,308,-3,-14
OrientationDeg,1636164827900,1024192471246805,308,-3,-14
Status,0,29,0,1,23,1575420032,18.00,314.25,41.75,1,1,1,
Status,0,29,1,1,10,1575420032,19.00,277.42,26.25,1,1,1,
Status,0,29,2,1,18,1575420032,15.00,353.73,38.77,1,1,1,
Status,0,29,3,1,29,1575420032,18.00,167.87,69.97,1,1,1,
Status,0,29,4,3,8,1605374976,18.00,252.33,51.96,1,1,0,
Status,0,29,5,1,32,1575420032,10.00,212.23,14.11,1,1,1,
Status,0,29,6,1,13,1575420032,0.00,39.47,14.88,0,1,1,
Status,0,29,7,1,15,1575420032,0.00,38.32,43.69,0,1,1,
Status,0,29,8,1,24,1575420032,0.00,125.07,27.82,0,1,1,
Status,0,29,9,1,26,1575420032,0.00,273.66,6.44,0,1,1,
Status,0,29,10,3,7,1604812544,0.00,350.41,54.21,0,0,0,
Status,0,29,11,3,20,1603124992,0.00,134.66,11.43,0,1,0,
Status,0,29,12,3,21,1604249984,0.00,86.07,57.83,0,1,1,
Status,0,29,13,3,6,1599750016,0.00,23.82,11.51,0,1,1,
Status,0,29,14,3,22,1600312448,0.00,0.52,43.06,0,0,1,
Status,0,29,15,5,6,1561097984,0.00,105.59,61.90,0,0,1,
Status,0,29,16,5,8,1561097984,0.00,43.52,33.94,0,0,0,
Status,0,29,17,5,9,1561097984,0.00,133.44,60.44,0,0,1,
Status,0,29,18,5,10,1561097984,0.00,177.32,25.84,0,1,1,
Status,0,29,19,5,11,1561097984,0.00,136.23,16.71,0,0,0,
Status,0,29,20,5,13,1561097984,0.00,30.51,39.51,0,1,0,
Status,0,29,21,5,14,1561097984,0.00,35.71,12.02,0,1,0,
Status,0,29,22,5,2,1561097984,0.00,162.02,75.72,0,0,0,
Status,0,29,23,3,1,1602562560,0.00,224.15,11.01,0,0,0,
Status,0,29,24,5,7,1561097984,0.00,165.02,17.81,0,0,1,
Status,0,29,25,5,3,1561097984,0.00,260.37,32.71,0,0,0,
Status,0,29,26,5,5,1561097984,0.00,252.48,51.18,0,0,0,
Status,0,29,27,5,1,1561097984,0.00,168.44,75.29,0,0,0,
Status,0,29,28,1,25,1575420032,0.00,188.94,14.98,0,1,1,
OrientationDeg,1636164827916,1024192487129617,308,-3,-14
Fix,GPS,13.0421890,80.1994993,-59.507534,0.000000,85.647476,157.009247,1636164829000,0.0,0.0,1024192398804516
OrientationDeg,1636164827932,1024192503012430,308,-3,-14
OrientationDeg,1636164827947,1024192518896805,308,-3,-14
OrientationDeg,1636164827963,1024192534776492,308,-3,-14
OrientationDeg,1636164827979,1024192550659305,308,-3,-14
OrientationDeg,1636164827995,1024192566542117,308,-3,-14
OrientationDeg,1636164828011,1024192582423367,308,-3,-14
OrientationDeg,1636164828027,1024192598304617,308,-4,-14
OrientationDeg,1636164828043,1024192614187430,308,-4,-14
OrientationDeg,1636164828059,1024192630070242,308,-4,-14
OrientationDeg,1636164828074,1024192645951492,308,-4,-14
OrientationDeg,1636164828090,1024192661834305,308,-4,-14
OrientationDeg,1636164828106,1024192677717117,308,-4,-14
OrientationDeg,1636164828122,1024192693598367,308,-4,-14
OrientationDeg,1636164828138,1024192709479617,308,-4,-14
OrientationDeg,1636164828154,1024192725362430,308,-4,-14
OrientationDeg,1636164828170,1024192741243680,308,-4,-14
OrientationDeg,1636164828186,1024192757145242,308,-5,-14
OrientationDeg,1636164828202,1024192773007742,308,-5,-14
OrientationDeg,1636164828217,1024192788888992,308,-5,-14
OrientationDeg,1636164828233,1024192804773367,308,-5,-14
OrientationDeg,1636164828250,1024192820654617,308,-5,-14
OrientationDeg,1636164828265,1024192836537430,308,-5,-14
OrientationDeg,1636164828281,1024192852418680,308,-5,-14
OrientationDeg,1636164828298,1024192868301492,308,-5,-14
OrientationDeg,1636164828314,1024192884182742,308,-5,-14
OrientationDeg,1636164828330,1024192900063992,308,-5,-14
OrientationDeg,1636164828344,1024192915948367,308,-5,-14
OrientationDeg,1636164828360,1024192931829617,308,-5,-14
OrientationDeg,1636164828377,1024192947715555,308,-5,-14
OrientationDeg,1636164828392,1024192963593680,308,-5,-14
OrientationDeg,1636164828408,1024192979474930,308,-5,-14
OrientationDeg,1636164828424,1024192995357742,308,-5,-14
OrientationDeg,1636164828440,1024193011238992,308,-5,-14
OrientationDeg,1636164828457,1024193027121805,308,-5,-14
OrientationDeg,1636164828473,1024193043004617,308,-5,-14
OrientationDeg,1636164828488,1024193058885867,308,-5,-14
OrientationDeg,1636164828503,1024193074768680,308,-5,-14
OrientationDeg,1636164828519,1024193090649930,308,-5,-14
OrientationDeg,1636164828535,1024193106532742,308,-5,-14
OrientationDeg,1636164828551,1024193122421805,308,-5,-14
OrientationDeg,1636164828568,1024193138295242,308,-5,-14
OrientationDeg,1636164828584,1024193154178055,308,-5,-14
OrientationDeg,1636164828599,1024193170060867,308,-5,-14
OrientationDeg,1636164828615,1024193185943680,308,-5,-14
OrientationDeg,1636164828630,1024193201826492,308,-5,-14
OrientationDeg,1636164828646,1024193217706180,308,-5,-14
OrientationDeg,1636164828662,1024193233609305,308,-5,-14
OrientationDeg,1636164828678,1024193249471805,308,-5,-15
OrientationDeg,1636164828694,1024193265353055,308,-5,-15
OrientationDeg,1636164828710,1024193281235867,308,-5,-15
OrientationDeg,1636164828727,1024193297117117,308,-5,-15
OrientationDeg,1636164828742,1024193313001492,308,-5,-15
OrientationDeg,1636164828757,1024193328881180,308,-5,-15
OrientationDeg,1636164828773,1024193344763992,308,-5,-15
OrientationDeg,1636164828789,1024193360645242,308,-5,-15
OrientationDeg,1636164828805,1024193376528055,308,-5,-15
Raw,1636164829999,1320200048000000000,18,,105827,0.10058224009117112,333.564095198152,142.56290987404057,0.0,0,23,220.0,3,6866133,25,18.0,95.8441395778209,0.1,16,0.0,0.0,1.57542003E9,,,,0,,1,0.0,,,,,,,
Raw,1636164829999,1320200048000000000,18,,105827,0.10058224009117112,333.564095198152,142.56290987404057,0.0,0,10,220.0,3,1917167,25,19.0,-89.42345951800235,0.1,16,0.0,0.0,1.57542003E9,,,,0,,1,0.0,,,,,,,
Raw,1636164829999,1320200048000000000,18,,105827,0.10058224009117112,333.564095198152,142.56290987404057,0.0,0,18,220.0,3,6548510,400,16.0,-289.50193903874606,0.1,16,0.0,0.0,1.57542003E9,,,,0,,1,0.0,,,,,,,
Raw,1636164829999,1320200048000000000,18,,105827,0.10058224009117112,333.564095198152,142.56290987404057,0.0,0,29,220.0,3,11261518,25,18.0,312.40583719918504,0.1,16,0.0,0.0,1.57542003E9,,,,0,,1,0.0,,,,,,,
Raw,1636164829999,1320200048000000000,18,,105827,0.10058224009117112,333.564095198152,142.56290987404057,0.0,0,8,220.0,33,2453662,25,19.0,-129.44684837689795,0.1,16,0.0,0.0,1.60537498E9,,,,0,,3,0.0,,,,,,,
Raw,1636164829999,1320200048000000000,18,,105827,0.10058224009117112,333.564095198152,142.56290987404057,0.0,0,32,220.0,3,18923637,400,12.0,-605.5167357728351,0.1,16,0.0,0.0,1.57542003E9,,,,0,,1,0.0,,,,,,,
OrientationDeg,1636164828821,1024193392409305,308,-5,-15
OrientationDeg,1636164828837,1024193408293680,308,-5,-15
OrientationDeg,1636164828854,1024193424174930,308,-5,-15
OrientationDeg,1636164828869,1024193440057742,308,-4,-15
Status,1636164829000,29,0,1,23,1575420032,18.00,314.26,41.75,1,1,1,
Status,1636164829000,29,1,1,10,1575420032,19.00,277.43,26.25,1,1,1,
Status,1636164829000,29,2,1,18,1575420032,16.00,353.74,38.77,1,1,1,
Status,1636164829000,29,3,1,29,1575420032,18.00,167.87,69.96,1,1,1,
Status,1636164829000,29,4,3,8,1605374976,19.00,252.35,51.96,1,1,0,
Status,1636164829000,29,5,1,32,1575420032,12.00,212.23,14.11,1,1,1,
Status,1636164829000,29,6,1,13,1575420032,0.00,39.47,14.88,0,1,1,
Status,1636164829000,29,7,1,15,1575420032,0.00,38.32,43.68,0,1,1,
Status,1636164829000,29,8,1,24,1575420032,0.00,125.06,27.82,0,1,1,
Status,1636164829000,29,9,1,26,1575420032,0.00,273.65,6.44,0,1,1,
Status,1636164829000,29,10,3,7,1604812544,0.00,350.42,54.20,0,0,0,
Status,1636164829000,29,11,3,20,1603124992,0.00,134.67,11.43,0,1,0,
Status,1636164829000,29,12,3,21,1604249984,0.00,86.09,57.83,0,1,1,
Status,1636164829000,29,13,3,6,1599750016,0.00,23.83,11.50,0,1,1,
Status,1636164829000,29,14,3,22,1600312448,0.00,0.53,43.07,0,0,1,
Status,1636164829000,29,15,5,6,1561097984,0.00,105.58,61.91,0,0,1,
Status,1636164829000,29,16,5,8,1561097984,0.00,43.52,33.94,0,0,0,
Status,1636164829000,29,17,5,9,1561097984,0.00,133.43,60.45,0,0,1,
Status,1636164829000,29,18,5,10,1561097984,0.00,177.32,25.84,0,1,1,
Status,1636164829000,29,19,5,11,1561097984,0.00,136.24,16.70,0,0,0,
Status,1636164829000,29,20,5,13,1561097984,0.00,30.51,39.51,0,1,0,
Status,1636164829000,29,21,5,14,1561097984,0.00,35.72,12.01,0,1,0,
Status,1636164829000,29,22,5,2,1561097984,0.00,162.02,75.72,0,0,0,
Status,1636164829000,29,23,3,1,1602562560,0.00,224.16,11.02,0,0,0,
Status,1636164829000,29,24,5,7,1561097984,0.00,165.02,17.80,0,0,1,
Status,1636164829000,29,25,5,3,1561097984,0.00,260.37,32.71,0,0,0,
Status,1636164829000,29,26,5,5,1561097984,0.00,252.48,51.18,0,0,0,
Status,1636164829000,29,27,5,1,1561097984,0.00,168.44,75.29,0,0,0,
Status,1636164829000,29,28,1,25,1575420032,0.00,188.94,14.98,0,1,1,
OrientationDeg,1636164828884,1024193455938992,308,-4,-15
OrientationDeg,1636164828900,1024193471834305,308,-4,-15
OrientationDeg,1636164828917,1024193487703055,308,-4,-15
Fix,GPS,13.0421890,80.1994993,-59.056873,0.000000,85.800446,163.731262,1636164830000,0.0,0.0,1024193392461808
OrientationDeg,1636164828932,1024193503590555,308,-4,-15
OrientationDeg,1636164828948,1024193519468680,308,-4,-14
OrientationDeg,1636164828964,1024193535349930,308,-4,-14
OrientationDeg,1636164828980,1024193551232742,308,-4,-14
OrientationDeg,1636164828996,1024193567113992,308,-4,-14
OrientationDeg,1636164829011,1024193582996805,308,-4,-14
OrientationDeg,1636164829027,1024193598878055,308,-4,-14
OrientationDeg,1636164829043,1024193614759305,308,-4,-14
OrientationDeg,1636164829059,1024193630657742,308,-4,-14
OrientationDeg,1636164829076,1024193646523367,308,-4,-14
OrientationDeg,1636164829092,1024193662406180,308,-4,-14
OrientationDeg,1636164829107,1024193678288992,308,-4,-14
OrientationDeg,1636164829124,1024193694170242,308,-4,-14
OrientationDeg,1636164829139,1024193710053055,308,-4,-14
OrientationDeg,1636164829154,1024193725934305,308,-4,-14
OrientationDeg,1636164829170,1024193741817117,308,-5,-14
OrientationDeg,1636164829186,1024193757699930,308,-5,-14
OrientationDeg,1636164829202,1024193773581180,308,-5,-14
OrientationDeg,1636164829218,1024193789462430,308,-5,-14
OrientationDeg,1636164829234,1024193805345242,308,-5,-14
OrientationDeg,1636164829250,1024193821226492,308,-5,-14
OrientationDeg,1636164829267,1024193837118680,308,-5,-14
OrientationDeg,1636164829281,1024193852992117,308,-4,-14
OrientationDeg,1636164829298,1024193868874930,308,-4,-14
OrientationDeg,1636164829313,1024193884756180,308,-4,-14
OrientationDeg,1636164829329,1024193900637430,308,-4,-13
OrientationDeg,1636164829346,1024193916520242,308,-4,-13
OrientationDeg,1636164829361,1024193932403055,308,-5,-13
OrientationDeg,1636164829377,1024193948285867,308,-5,-13
OrientationDeg,1636164829393,1024193964167117,308,-5,-13
OrientationDeg,1636164829409,1024193980049930,307,-5,-13
OrientationDeg,1636164829424,1024193995931180,307,-5,-13
OrientationDeg,1636164829441,1024194011812430,307,-5,-13
OrientationDeg,1636164829457,1024194027693680,307,-5,-13
OrientationDeg,1636164829472,1024194043576492,306,-5,-13
OrientationDeg,1636164829488,1024194059459305,306,-6,-13
OrientationDeg,1636164829505,1024194075340555,306,-6,-13
OrientationDeg,1636164829520,1024194091223367,306,-6,-13
OrientationDeg,1636164829536,1024194107107742,306,-7,-12
OrientationDeg,1636164829552,1024194122987430,306,-8,-12
OrientationDeg,1636164829567,1024194138870242,305,-9,-11
OrientationDeg,1636164829583,1024194154753055,305,-9,-11
OrientationDeg,1636164829599,1024194170634305,305,-9,-11
OrientationDeg,1636164829616,1024194186515555,305,-9,-11
OrientationDeg,1636164829631,1024194202398367,304,-9,-11
OrientationDeg,1636164829647,1024194218279617,304,-8,-11
OrientationDeg,1636164829664,1024194234168680,304,-8,-12
OrientationDeg,1636164829679,1024194250045242,304,-8,-12
OrientationDeg,1636164829694,1024194265926492,304,-8,-12
OrientationDeg,1636164829710,1024194281809305,304,-8,-12
OrientationDeg,1636164829726,1024194297692117,304,-8,-12
OrientationDeg,1636164829743,1024194313573367,304,-7,-11
OrientationDeg,1636164829758,1024194329456180,304,-7,-11
OrientationDeg,1636164829775,1024194345337430,304,-7,-11
OrientationDeg,1636164829790,1024194361218680,303,-6,-11
OrientationDeg,1636164829806,1024194377101492,303,-6,-11
Status,1636164830000,29,0,1,23,1575420032,18.00,314.27,41.75,1,1,1,
Status,1636164830000,29,1,1,10,1575420032,19.00,277.44,26.25,1,1,1,
Status,1636164830000,29,2,1,18,1575420032,16.00,353.74,38.78,1,1,1,
Status,1636164830000,29,3,1,29,1575420032,18.00,167.88,69.95,1,1,1,
Status,1636164830000,29,4,3,8,1605374976,19.00,252.36,51.97,1,1,0,
Status,1636164830000,29,5,1,13,1575420032,0.00,39.47,14.87,0,1,1,
Status,1636164830000,29,6,1,15,1575420032,0.00,38.32,43.68,0,1,1,
Status,1636164830000,29,7,1,24,1575420032,0.00,125.06,27.82,0,1,1,
Status,1636164830000,29,8,1,26,1575420032,0.00,273.65,6.44,0,1,1,
Status,1636164830000,29,9,3,7,1604812544,0.00,350.43,54.20,0,0,0,
Status,1636164830000,29,10,3,20,1603124992,0.00,134.68,11.42,0,1,0,
Status,1636164830000,29,11,3,21,1604249984,0.00,86.11,57.83,0,1,1,
Status,1636164830000,29,12,3,6,1599750016,0.00,23.83,11.50,0,1,1,
Status,1636164830000,29,13,3,22,1600312448,0.00,0.53,43.08,0,0,1,
Status,1636164830000,29,14,5,6,1561097984,0.00,105.57,61.91,0,0,1,
Status,1636164830000,29,15,5,8,1561097984,0.00,43.52,33.95,0,0,0,
Status,1636164830000,29,16,5,9,1561097984,0.00,133.43,60.45,0,0,1,
Status,1636164830000,29,17,5,10,1561097984,0.00,177.32,25.84,0,1,1,
Status,1636164830000,29,18,5,11,1561097984,0.00,136.24,16.70,0,0,0,
Status,1636164830000,29,19,5,13,1561097984,0.00,30.51,39.51,0,1,0,
Status,1636164830000,29,20,5,14,1561097984,0.00,35.72,12.01,0,1,0,
Status,1636164830000,29,21,5,2,1561097984,0.00,162.02,75.72,0,0,0,
Status,1636164830000,29,22,3,1,1602562560,0.00,224.16,11.02,0,0,0,
Status,1636164830000,29,23,1,32,1575420032,0.00,212.23,14.12,0,1,1,
Status,1636164830000,29,24,5,7,1561097984,0.00,165.02,17.80,0,0,1,
Status,1636164830000,29,25,5,3,1561097984,0.00,260.37,32.71,0,0,0,
Status,1636164830000,29,26,5,5,1561097984,0.00,252.48,51.18,0,0,0,
Status,1636164830000,29,27,5,1,1561097984,0.00,168.44,75.29,0,0,0,
Status,1636164830000,29,28,1,25,1575420032,0.00,188.93,14.97,0,1,1,
Raw,1636164830999,1320200049000000000,18,,105971,0.8199655522039393,333.564095198152,142.56290987404057,0.0,0,23,220.0,3,6865815,25,18.0,97.22258446854539,0.1,16,0.0,0.0,1.57542003E9,,,,0,,1,0.0,,,,,,,
Raw,1636164830999,1320200049000000000,18,,105971,0.8199655522039393,333.564095198152,142.56290987404057,0.0,0,10,220.0,3,1917458,25,19.0,-87.92219376191497,0.1,16,0.0,0.0,1.57542003E9,,,,0,,1,0.0,,,,,,,
Raw,1636164830999,1320200049000000000,18,,105971,0.8199655522039393,333.564095198152,142.56290987404057,0.0,0,18,220.0,3,6549484,400,16.0,-289.2848092946224,0.1,16,0.0,0.0,1.57542003E9,,,,0,,1,0.0,,,,,,,
Raw,1636164830999,1320200049000000000,18,,105971,0.8199655522039393,333.564095198152,142.56290987404057,0.0,0,29,220.0,3,11260492,25,18.0,314.7778151615057,0.1,16,0.0,0.0,1.57542003E9,,,,0,,1,0.0,,,,,,,
Raw,1636164830999,1320200049000000000,18,,105971,0.8199655522039393,333.564095198152,142.56290987404057,0.0,0,8,220.0,33,2454083,25,19.0,-129.96051495916458,0.1,16,0.0,0.0,1.60537498E9,,,,0,,3,0.0,,,,,,,
OrientationDeg,1636164829821,1024194392982742,303,-5,-11
OrientationDeg,1636164829837,1024194408865555,302,-4,-11
OrientationDeg,1636164829853,1024194424746805,302,-4,-11
OrientationDeg,1636164829870,1024194440629617,301,-3,-11
OrientationDeg,1636164829885,1024194456512430,301,-2,-11
OrientationDeg,1636164829901,1024194472393680,300,0,-11
Fix,GPS,13.0421890,80.1994993,-59.229904,0.000000,96.511856,45.935940,1636164831000,0.0,0.0,1024194399067016
OrientationDeg,1636164829917,1024194488276492,300,0,-10
OrientationDeg,1636164829934,1024194504157742,299,0,-10
OrientationDeg,1636164829949,1024194520040555,299,2,-9
OrientationDeg,1636164829964,1024194535923367,299,2,-9
OrientationDeg,1636164829980,1024194551804617,299,3,-8
OrientationDeg,1636164829997,1024194567687430,299,4,-7
OrientationDeg,1636164830012,1024194583570242,298,4,-7
OrientationDeg,1636164830028,1024194599451492,298,4,-7
OrientationDeg,1636164830045,1024194615332742,297,4,-7
OrientationDeg,1636164830060,1024194631217117,296,4,-7
OrientationDeg,1636164830077,1024194647098367,296,3,-7
OrientationDeg,1636164830091,1024194662979617,295,2,-7
OrientationDeg,1636164830107,1024194678862430,295,1,-8
OrientationDeg,1636164830123,1024194694743680,294,0,-8
OrientationDeg,1636164830139,1024194710632742,294,-1,-8
OrientationDeg,1636164830155,1024194726509305,293,-1,-8
OrientationDeg,1636164830171,1024194742390555,293,-2,-8
OrientationDeg,1636164830187,1024194758273367,292,-2,-8
OrientationDeg,1636164830204,1024194774154617,292,-3,-8
OrientationDeg,1636164830219,1024194790035867,292,-2,-7
OrientationDeg,1636164830235,1024194805918680,292,-2,-7
OrientationDeg,1636164830250,1024194821799930,292,-2,-6
OrientationDeg,1636164830266,1024194837682742,292,-1,-5
OrientationDeg,1636164830282,1024194853565555,292,0,-5
OrientationDeg,1636164830298,1024194869446805,293,0,-3
OrientationDeg,1636164830314,1024194885329617,294,1,-3
OrientationDeg,1636164830331,1024194901210867,295,2,-2
OrientationDeg,1636164830346,1024194917092117,296,3,-1
OrientationDeg,1636164830361,1024194932974930,297,4,-1
OrientationDeg,1636164830377,1024194948857742,298,5,0
OrientationDeg,1636164830393,1024194964738992,298,5,-1
OrientationDeg,1636164830409,1024194980621805,298,7,-1
OrientationDeg,1636164830425,1024194996503055,299,8,-2
OrientationDeg,1636164830441,1024195012385867,299,8,-3
OrientationDeg,1636164830457,1024195028267117,299,8,-4
OrientationDeg,1636164830473,1024195044149930,299,8,-4
OrientationDeg,1636164830489,1024195060034305,299,8,-4
OrientationDeg,1636164830504,1024195075913992,299,8,-3
OrientationDeg,1636164830520,1024195091796805,299,8,-3
OrientationDeg,1636164830536,1024195107678055,299,7,-2
OrientationDeg,1636164830552,1024195123560867,299,6,-1
OrientationDeg,1636164830568,1024195139442117,299,6,0
OrientationDeg,1636164830585,1024195155324930,299,6,0
OrientationDeg,1636164830600,1024195171206180,299,6,0
OrientationDeg,1636164830617,1024195187088992,299,5,0
OrientationDeg,1636164830631,1024195202971805,299,4,1
OrientationDeg,1636164830647,1024195218853055,299,4,1
OrientationDeg,1636164830663,1024195234735867,300,3,1
OrientationDeg,1636164830678,1024195250617117,300,3,1
OrientationDeg,1636164830696,1024195266498367,300,3,1
OrientationDeg,1636164830711,1024195282382742,301,3,1
OrientationDeg,1636164830727,1024195298263992,301,2,1
OrientationDeg,1636164830743,1024195314145242,302,1,2
OrientationDeg,1636164830759,1024195330028055,302,1,2
OrientationDeg,1636164830774,1024195345909305,302,0,2
OrientationDeg,1636164830791,1024195361792117,303,0,3
OrientationDeg,1636164830806,1024195377676492,303,0,3
OrientationDeg,1636164830822,1024195393556180,303,0,3
OrientationDeg,1636164830839,1024195409438992,304,0,3
Raw,1636164831999,1320200050000000000,18,,106112,0.6220799915463431,333.564095198152,143.5553271995003,0.0,0,23,220.0,3,6865470,25,18.0,96.3036212080624,0.1,16,0.0,0.0,1.57542003E9,,,,0,,1,0.0,,,,,,,
Raw,1636164831999,1320200050000000000,18,,106112,0.6220799915463431,333.564095198152,143.5553271995003,0.0,0,10,220.0,3,1917713,25,18.0,-88.75013798824511,0.1,16,0.0,0.0,1.57542003E9,,,,0,,1,0.0,,,,,,,
Raw,1636164831999,1320200050000000000,18,,106112,0.6220799915463431,333.564095198152,143.5553271995003,0.0,0,18,220.0,3,6550463,400,16.0,-289.38460124772973,0.1,16,0.0,0.0,1.57542003E9,,,,0,,1,0.0,,,,,,,
Raw,1636164831999,1320200050000000000,18,,106112,0.6220799915463431,333.564095198152,143.5553271995003,0.0,0,29,220.0,3,11259444,400,17.0,313.5134182171896,0.1,16,0.0,0.0,1.57542003E9,,,,0,,1,0.0,,,,,,,
Raw,1636164831999,1320200050000000000,18,,106112,0.6220799915463431,333.564095198152,143.5553271995003,0.0,0,8,220.0,33,2454575,25,18.0,-130.76401575824084,0.1,16,0.0,0.0,1.60537498E9,,,,0,,3,0.0,,,,,,,
OrientationDeg,1636164830854,1024195425326492,304,-1,3
OrientationDeg,1636164830870,1024195441203055,305,-1,3
OrientationDeg,1636164830886,1024195457084305,305,-1,3
OrientationDeg,1636164830902,1024195472967117,305,-1,3
OrientationDeg,1636164830917,1024195488849930,305,-1,3
OrientationDeg,1636164830933,1024195504731180,306,-2,3
OrientationDeg,1636164830950,1024195520613992,306,-2,3
OrientationDeg,1636164830965,1024195536495242,307,-3,3
OrientationDeg,1636164830981,1024195552378055,308,-3,3
OrientationDeg,1636164830997,1024195568259305,308,-3,2
Fix,GPS,13.0421890,80.1994993,-59.386692,0.000000,96.822739,87.066414,1636164832000,0.0,0.0,1024195404407120
OrientationDeg,1636164831013,1024195584142117,309,-4,2
OrientationDeg,1636164831029,1024195600023367,309,-4,1
OrientationDeg,1636164831044,1024195615906180,310,-4,1
Status,1636164832000,29,0,1,23,1575420032,18.00,314.28,41.75,1,1,1,
Status,1636164832000,29,1,1,10,1575420032,18.00,277.45,26.26,1,1,1,
Status,1636164832000,29,2,1,18,1575420032,16.00,353.75,38.78,1,1,1,
Status,1636164832000,29,3,1,29,1575420032,17.00,167.88,69.94,1,1,1,
Status,1636164832000,29,4,3,8,1605374976,18.00,252.38,51.97,1,1,0,
Status,1636164832000,29,5,1,13,1575420032,0.00,39.46,14.86,0,1,1,
Status,1636164832000,29,6,1,15,1575420032,0.00,38.31,43.67,0,1,1,
Status,1636164832000,29,7,1,24,1575420032,0.00,125.05,27.83,0,1,1,
Status,1636164832000,29,8,1,26,1575420032,0.00,273.64,6.44,0,1,1,
Status,1636164832000,29,9,3,7,1604812544,0.00,350.44,54.19,0,0,0,
Status,1636164832000,29,10,3,20,1603124992,0.00,134.68,11.42,0,1,0,
Status,1636164832000,29,11,3,21,1604249984,0.00,86.13,57.83,0,1,1,
Status,1636164832000,29,12,3,6,1599750016,0.00,23.83,11.49,0,1,1,
Status,1636164832000,29,13,3,22,1600312448,0.00,0.54,43.09,0,0,1,
Status,1636164832000,29,14,5,6,1561097984,0.00,105.57,61.91,0,0,1,
Status,1636164832000,29,15,5,8,1561097984,0.00,43.53,33.95,0,0,0,
Status,1636164832000,29,16,5,9,1561097984,0.00,133.43,60.45,0,0,1,
Status,1636164832000,29,17,5,10,1561097984,0.00,177.32,25.84,0,1,1,
Status,1636164832000,29,18,5,11,1561097984,0.00,136.25,16.69,0,0,0,
Status,1636164832000,29,19,5,13,1561097984,0.00,30.52,39.51,0,1,0,
Status,1636164832000,29,20,5,14,1561097984,0.00,35.72,12.00,0,1,0,
Status,1636164832000,29,21,5,2,1561097984,0.00,162.02,75.72,0,0,0,
Status,1636164832000,29,22,3,1,1602562560,0.00,224.17,11.03,0,0,0,
Status,1636164832000,29,23,1,32,1575420032,0.00,212.24,14.12,0,1,1,
Status,1636164832000,29,24,5,7,1561097984,0.00,165.01,17.80,0,0,1,
Status,1636164832000,29,25,5,3,1561097984,0.00,260.37,32.71,0,0,0,
Status,1636164832000,29,26,5,5,1561097984,0.00,252.48,51.18,0,0,0,
Status,1636164832000,29,27,5,1,1561097984,0.00,168.44,75.29,0,0,0,
Status,1636164832000,29,28,1,25,1575420032,0.00,188.93,14.97,0,1,1,
OrientationDeg,1636164831060,1024195631788992,310,-3,0
OrientationDeg,1636164831076,1024195647670242,310,-2,0
OrientationDeg,1636164831092,1024195663553055,310,-1,0
OrientationDeg,1636164831108,1024195679434305,310,-1,0
OrientationDeg,1636164831125,1024195695317117,310,-1,0
OrientationDeg,1636164831140,1024195711198367,310,-1,0
OrientationDeg,1636164831156,1024195727081180,310,-1,0
OrientationDeg,1636164831171,1024195742963992,311,-2,0
OrientationDeg,1636164831187,1024195758845242,311,-2,0
OrientationDeg,1636164831203,1024195774726492,312,-2,0
OrientationDeg,1636164831220,1024195790609305,312,-3,0
OrientationDeg,1636164831236,1024195806492117,313,-3,0
OrientationDeg,1636164831251,1024195822373367,313,-3,0
OrientationDeg,1636164831268,1024195838256180,313,-4,0
OrientationDeg,1636164831283,1024195854138992,313,-4,0
OrientationDeg,1636164831299,1024195870020242,313,-4,0
OrientationDeg,1636164831314,1024195885901492,314,-4,0
OrientationDeg,1636164831330,1024195901784305,314,-5,0
OrientationDeg,1636164831346,1024195917665555,314,-5,0
OrientationDeg,1636164831362,1024195933548367,315,-5,0
OrientationDeg,1636164831378,1024195949431180,315,-5,0
OrientationDeg,1636164831394,1024195965312430,315,-5,0
OrientationDeg,1636164831410,1024195981195242,315,-6,0
OrientationDeg,1636164831426,1024195997076492,316,-6,0
OrientationDeg,1636164831441,1024196012962430,316,-5,0
OrientationDeg,1636164831458,1024196028842117,316,-5,0
OrientationDeg,1636164831473,1024196044723367,316,-5,0
OrientationDeg,1636164831489,1024196060604617,316,-5,0
OrientationDeg,1636164831505,1024196076487430,317,-5,0
OrientationDeg,1636164831522,1024196092370242,317,-5,-1
OrientationDeg,1636164831538,1024196108251492,317,-5,-1
OrientationDeg,1636164831553,1024196124134305,316,-4,-1
OrientationDeg,1636164831570,1024196140015555,316,-4,-1
OrientationDeg,1636164831584,1024196155898367,316,-4,-1
OrientationDeg,1636164831601,1024196171779617,316,-4,-1
OrientationDeg,1636164831617,1024196187662430,316,-3,-1
OrientationDeg,1636164831632,1024196203543680,316,-3,0
OrientationDeg,1636164831649,1024196219434305,316,-2,0
OrientationDeg,1636164831664,1024196235309305,316,-2,0
OrientationDeg,1636164831681,1024196251192117,316,-2,0
OrientationDeg,1636164831696,1024196267071805,316,-2,0
OrientationDeg,1636164831711,1024196282954617,316,-2,-1
OrientationDeg,1636164831727,1024196298837430,316,-1,-1
OrientationDeg,1636164831744,1024196314718680,315,-1,-2
OrientationDeg,1636164831759,1024196330603055,314,0,-3
OrientationDeg,1636164831775,1024196346482742,313,0,-3
OrientationDeg,1636164831791,1024196362365555,312,0,-4
OrientationDeg,1636164831807,1024196378246805,311,0,-4
OrientationDeg,1636164831823,1024196394129617,310,1,-4
Raw,1636164832999,1320200051000000000,18,,106255,0.6689393989217933,333.564095198152,143.5553271995003,0.0,0,23,220.0,3,6865145,25,19.0,96.37270794482902,0.1,16,0.0,0.0,1.57542003E9,,,,0,,1,0.0,,,,,,,
Raw,1636164832999,1320200051000000000,18,,106255,0.6689393989217933,333.564095198152,143.5553271995003,0.0,0,10,220.0,3,1918043,400,17.0,-91.76582887885161,0.1,16,0.0,0.0,1.57542003E9,,,,0,,1,0.0,,,,,,,
Raw,1636164832999,1320200051000000000,18,,106255,0.6689393989217933,333.564095198152,143.5553271995003,0.0,0,18,220.0,3,6551428,400,16.0,-289.0358777192887,0.1,16,0.0,0.0,1.57542003E9,,,,0,,1,0.0,,,,,,,
Raw,1636164832999,1320200051000000000,18,,106255,0.6689393989217933,333.564095198152,143.5553271995003,0.0,0,32,220.0,3,18929412,25,20.0,-601.8693947175052,0.1,16,0.0,0.0,1.57542003E9,,,,0,,1,0.0,,,,,,,
Raw,1636164832999,1320200051000000000,18,,106255,0.6689393989217933,333.564095198152,143.5553271995003,0.0,0,29,220.0,3,11258375,25,19.0,312.8400966874324,0.1,16,0.0,0.0,1.57542003E9,,,,0,,1,0.0,,,,,,,
Raw,1636164832999,1320200051000000000,18,,106255,0.6689393989217933,333.564095198152,143.5553271995003,0.0,0,8,220.0,33,2454970,25,18.0,-129.51285022825064,0.1,16,0.0,0.0,1.60537498E9,,,,0,,3,0.0,,,,,,,
OrientationDeg,1636164831840,1024196410013992,310,1,-5
OrientationDeg,1636164831854,1024196425893680,309,1,-4
OrientationDeg,1636164831870,1024196441774930,309,2,-4
OrientationDeg,1636164831886,1024196457657742,308,2,-4
OrientationDeg,1636164831902,1024196473540555,308,2,-4
OrientationDeg,1636164831918,1024196489423367,307,1,-3
OrientationDeg,1636164831934,1024196505304617,307,1,-3
OrientationDeg,1636164831950,1024196521185867,307,1,-3
OrientationDeg,1636164831966,1024196537070242,307,1,-3
Status,1636164832000,29,0,1,23,1575420032,19.00,314.29,41.75,1,1,1,
Status,1636164832000,29,1,1,10,1575420032,17.00,277.46,26.26,1,1,1,
Status,1636164832000,29,2,1,18,1575420032,16.00,353.76,38.78,1,1,1,
Status,1636164832000,29,3,1,32,1575420032,20.00,212.24,14.13,0,1,1,
Status,1636164832000,29,4,1,29,1575420032,19.00,167.89,69.94,1,1,1,
Status,1636164832000,29,5,3,8,1605374976,18.00,252.40,51.97,1,1,0,
Status,1636164832000,29,6,1,13,1575420032,0.00,39.46,14.86,0,1,1,
Status,1636164832000,29,7,1,15,1575420032,0.00,38.31,43.66,0,1,1,
Status,1636164832000,29,8,1,24,1575420032,0.00,125.04,27.83,0,1,1,
Status,1636164832000,29,9,1,26,1575420032,0.00,273.63,6.44,0,1,1,
Status,1636164832000,29,10,3,7,1604812544,0.00,350.44,54.18,0,0,0,
Status,1636164832000,29,11,3,20,1603124992,0.00,134.69,11.41,0,1,0,
Status,1636164832000,29,12,3,21,1604249984,0.00,86.15,57.83,0,1,1,
Status,1636164832000,29,13,3,6,1599750016,0.00,23.83,11.48,0,1,1,
Status,1636164832000,29,14,3,22,1600312448,0.00,0.54,43.10,0,0,1,
Status,1636164832000,29,15,5,6,1561097984,0.00,105.56,61.92,0,0,1,
Status,1636164832000,29,16,5,8,1561097984,0.00,43.53,33.95,0,0,0,
Status,1636164832000,29,17,5,9,1561097984,0.00,133.42,60.46,0,0,1,
Status,1636164832000,29,18,5,10,1561097984,0.00,177.32,25.84,0,1,1,
Status,1636164832000,29,19,5,11,1561097984,0.00,136.25,16.69,0,0,0,
Status,1636164832000,29,20,5,13,1561097984,0.00,30.52,39.51,0,1,0,
Status,1636164832000,29,21,5,14,1561097984,0.00,35.73,12.00,0,1,0,
Status,1636164832000,29,22,5,2,1561097984,0.00,162.02,75.72,0,0,0,
Status,1636164832000,29,23,3,1,1602562560,0.00,224.18,11.03,0,0,0,
Status,1636164832000,29,24,5,7,1561097984,0.00,165.01,17.80,0,0,1,
Status,1636164832000,29,25,5,3,1561097984,0.00,260.37,32.71,0,0,0,
Status,1636164832000,29,26,5,5,1561097984,0.00,252.48,51.18,0,0,0,
Status,1636164832000,29,27,5,1,1561097984,0.00,168.44,75.29,0,0,0,
Status,1636164832000,29,28,1,25,1575420032,0.00,188.92,14.97,0,1,1,
OrientationDeg,1636164831981,1024196552951492,306,1,-3
OrientationDeg,1636164831997,1024196568834305,306,1,-3
OrientationDeg,1636164832013,1024196584715555,306,1,-3
Fix,GPS,13.0421890,80.1994993,-59.855312,0.000000,97.876213,160.080078,1636164833000,0.0,0.0,1024196400230037
OrientationDeg,1636164832030,1024196600596805,306,0,-2
OrientationDeg,1636164832046,1024196616478055,306,0,-2
OrientationDeg,1636164832061,1024196632362430,306,0,-2
OrientationDeg,1636164832077,1024196648243680,306,0,-2
OrientationDeg,1636164832094,1024196664126492,305,0,-2
OrientationDeg,1636164832110,1024196680009305,305,-1,-1
OrientationDeg,1636164832124,1024196695888992,305,-1,-1
OrientationDeg,1636164832140,1024196711771805,305,-2,-1
OrientationDeg,1636164832157,1024196727654617,306,-2,-1
OrientationDeg,1636164832172,1024196743535867,306,-3,0
OrientationDeg,1636164832189,1024196759418680,306,-3,0
OrientationDeg,1636164832204,1024196775299930,306,-4,0
OrientationDeg,1636164832221,1024196791182742,306,-5,0
OrientationDeg,1636164832237,1024196807065555,306,-6,0
OrientationDeg,1636164832251,1024196822946805,306,-7,1
OrientationDeg,1636164832267,1024196838828055,307,-9,2
OrientationDeg,1636164832283,1024196854710867,307,-10,3
OrientationDeg,1636164832299,1024196870593680,307,-10,3
OrientationDeg,1636164832315,1024196886495242,307,-9,3
OrientationDeg,1636164832332,1024196902357742,307,-8,3
OrientationDeg,1636164832348,1024196918238992,306,-7,3
OrientationDeg,1636164832364,1024196934121805,306,-7,3
OrientationDeg,1636164832379,1024196950003055,305,-7,3
OrientationDeg,1636164832394,1024196965885867,305,-7,3
OrientationDeg,1636164832411,1024196981768680,304,-6,3
OrientationDeg,1636164832426,1024196997649930,304,-6,3
OrientationDeg,1636164832442,1024197013537430,304,-6,3
OrientationDeg,1636164832458,1024197029413992,304,-6,3
OrientationDeg,1636164832474,1024197045296805,303,-7,3
OrientationDeg,1636164832491,1024197061178055,303,-7,3
OrientationDeg,1636164832506,1024197077060867,303,-8,3
OrientationDeg,1636164832522,1024197092942117,303,-8,3
OrientationDeg,1636164832537,1024197108824930,303,-9,3
OrientationDeg,1636164832553,1024197124723367,304,-9,3
OrientationDeg,1636164832569,1024197140588992,305,-9,3
OrientationDeg,1636164832585,1024197156471805,305,-10,2
OrientationDeg,1636164832602,1024197172353055,306,-10,2
OrientationDeg,1636164832617,1024197188235867,307,-10,2
OrientationDeg,1636164832633,1024197204118680,308,-9,2
OrientationDeg,1636164832648,1024197219999930,309,-9,2
OrientationDeg,1636164832664,1024197235882742,309,-8,2
OrientationDeg,1636164832680,1024197251763992,309,-6,2
OrientationDeg,1636164832697,1024197267645242,309,-6,2
OrientationDeg,1636164832712,1024197283545242,309,-6,2
OrientationDeg,1636164832728,1024197299409305,308,-6,2
OrientationDeg,1636164832744,1024197315292117,308,-6,2
OrientationDeg,1636164832760,1024197331176492,307,-6,2
OrientationDeg,1636164832776,1024197347056180,307,-6,2
OrientationDeg,1636164832791,1024197362938992,306,-6,2
OrientationDeg,1636164832807,1024197378820242,306,-6,2
OrientationDeg,1636164832823,1024197394703055,306,-6,2
Raw,1636164833999,1320200052000000000,18,,106396,0.570738428257755,333.564095198152,143.91299340951807,0.0,0,23,220.0,3,6864840,25,26.0,96.13474251818843,0.1,16,0.0,0.0,1.57542003E9,,,,0,,1,0.0,,,,,,,
Raw,1636164833999,1320200052000000000,18,,106396,0.570738428257755,333.564095198152,143.91299340951807,0.0,0,10,220.0,3,1918343,400,16.0,-91.46645301952958,0.1,16,0.0,0.0,1.57542003E9,,,,0,,1,0.0,,,,,,,
Raw,1636164833999,1320200052000000000,18,,106396,0.570738428257755,333.564095198152,143.91299340951807,0.0,0,18,220.0,3,6552417,400,17.0,-289.4942627346609,0.1,16,0.0,0.0,1.57542003E9,,,,0,,1,0.0,,,,,,,
Raw,1636164833999,1320200052000000000,18,,106396,0.570738428257755,333.564095198152,143.91299340951807,0.0,0,32,220.0,3,18931379,25,18.0,-595.6022407393903,0.1,16,0.0,0.0,1.57542003E9,,,,0,,1,0.0,,,,,,,
Raw,1636164833999,1320200052000000000,18,,106396,0.570738428257755,333.564095198152,143.91299340951807,0.0,0,29,220.0,3,11257318,25,24.0,313.2995783176739,0.1,16,0.0,0.0,1.57542003E9,,,,0,,1,0.0,,,,,,,
Raw,1636164833999,1320200052000000000,18,,106396,0.570738428257755,333.564095198152,143.91299340951807,0.0,0,8,220.0,33,2455403,25,18.0,-129.33493219416948,0.1,16,0.0,0.0,1.60537498E9,,,,0,,3,0.0,,,,,,,
Status,1636164833000,29,0,1,23,1575420032,26.00,314.30,41.75,1,1,1,
Status,1636164833000,29,1,1,10,1575420032,16.00,277.47,26.26,1,1,1,
Status,1636164833000,29,2,1,18,1575420032,17.00,353.76,38.79,1,1,1,
Status,1636164833000,29,3,1,32,1575420032,18.00,212.24,14.14,1,1,1,
Status,1636164833000,29,4,1,29,1575420032,24.00,167.89,69.93,1,1,1,
Status,1636164833000,29,5,3,8,1605374976,18.00,252.41,51.98,1,1,0,
Status,1636164833000,29,6,1,13,1575420032,0.00,39.46,14.85,0,1,1,
Status,1636164833000,29,7,1,15,1575420032,0.00,38.31,43.65,0,1,1,
Status,1636164833000,29,8,1,24,1575420032,0.00,125.03,27.83,0,1,1,
Status,1636164833000,29,9,1,26,1575420032,0.00,273.62,6.44,0,1,1,
Status,1636164833000,29,10,3,7,1604812544,0.00,350.45,54.17,0,0,0,
Status,1636164833000,29,11,3,20,1603124992,0.00,134.70,11.40,0,1,0,
Status,1636164833000,29,12,3,21,1604249984,0.00,86.17,57.83,0,1,1,
Status,1636164833000,29,13,3,6,1599750016,0.00,23.84,11.48,0,1,1,
Status,1636164833000,29,14,3,22,1600312448,0.00,0.55,43.11,0,0,1,
Status,1636164833000,29,15,5,6,1561097984,0.00,105.55,61.92,0,0,1,
Status,1636164833000,29,16,5,8,1561097984,0.00,43.53,33.95,0,0,0,
Status,1636164833000,29,17,5,9,1561097984,0.00,133.42,60.46,0,0,1,
Status,1636164833000,29,18,5,10,1561097984,0.00,177.31,25.83,0,1,1,
Status,1636164833000,29,19,5,11,1561097984,0.00,136.25,16.68,0,0,0,
Status,1636164833000,29,20,5,13,1561097984,0.00,30.52,39.52,0,1,0,
Status,1636164833000,29,21,5,14,1561097984,0.00,35.73,11.99,0,1,0,
Status,1636164833000,29,22,5,2,1561097984,0.00,162.02,75.72,0,0,0,
Status,1636164833000,29,23,3,1,1602562560,0.00,224.18,11.04,0,0,0,
Status,1636164833000,29,24,5,7,1561097984,0.00,165.01,17.80,0,0,1,
Status,1636164833000,29,25,5,3,1561097984,0.00,260.37,32.71,0,0,0,
Status,1636164833000,29,26,5,5,1561097984,0.00,252.48,51.18,0,0,0,
Status,1636164833000,29,27,5,1,1561097984,0.00,168.44,75.29,0,0,0,
Status,1636164833000,29,28,1,25,1575420032,0.00,188.92,14.96,0,1,1,
OrientationDeg,1636164832839,1024197410587430,305,-6,2
OrientationDeg,1636164832855,1024197426467117,305,-6,2
OrientationDeg,1636164832871,1024197442348367,305,-6,2
OrientationDeg,1636164832888,1024197458231180,304,-6,2
OrientationDeg,1636164832903,1024197474113992,305,-6,2
OrientationDeg,1636164832918,1024197489995242,305,-6,2
OrientationDeg,1636164832934,1024197505878055,305,-6,2
OrientationDeg,1636164832950,1024197521759305,305,-6,2
OrientationDeg,1636164832966,1024197537642117,305,-6,2
OrientationDeg,1636164832982,1024197553523367,305,-6,2
OrientationDeg,1636164832998,1024197569406180,305,-6,2
OrientationDeg,1636164833015,1024197585288992,305,-6,2
OrientationDeg,1636164833031,1024197601171805,305,-6,2
Fix,GPS,13.0421890,80.1994993,-59.126312,0.000000,83.271103,17.994781,1636164834000,0.0,0.0,1024197412575349
OrientationDeg,1636164833047,1024197617051492,305,-6,2
OrientationDeg,1636164833062,1024197632934305,306,-6,2
OrientationDeg,1636164833077,1024197648817117,306,-6,2
OrientationDeg,1636164833094,1024197664698367,306,-6,2
OrientationDeg,1636164833110,1024197680582742,306,-6,2
OrientationDeg,1636164833125,1024197696462430,307,-6,2
OrientationDeg,1636164833141,1024197712345242,307,-6,2
OrientationDeg,1636164833157,1024197728226492,308,-6,2
OrientationDeg,1636164833174,1024197744109305,309,-6,2
OrientationDeg,1636164833188,1024197759992117,309,-6,2
OrientationDeg,1636164833204,1024197775873367,310,-6,2
OrientationDeg,1636164833221,1024197791754617,310,-6,2
OrientationDeg,1636164833236,1024197807642117,311,-6,2
OrientationDeg,1636164833252,1024197823520242,311,-6,2
OrientationDeg,1636164833269,1024197839403055,311,-6,2
OrientationDeg,1636164833284,1024197855284305,312,-6,2
OrientationDeg,1636164833300,1024197871165555,312,-6,2
OrientationDeg,1636164833316,1024197887048367,312,-6,2
OrientationDeg,1636164833332,1024197902931180,312,-6,2
OrientationDeg,1636164833347,1024197918812430,312,-6,2
OrientationDeg,1636164833364,1024197934695242,312,-6,2
OrientationDeg,1636164833379,1024197950576492,312,-6,2
OrientationDeg,1636164833395,1024197966457742,312,-6,2
OrientationDeg,1636164833412,1024197982342117,312,-6,2
OrientationDeg,1636164833427,1024197998223367,312,-6,2
OrientationDeg,1636164833444,1024198014104617,311,-6,2
OrientationDeg,1636164833458,1024198029987430,311,-6,2
OrientationDeg,1636164833475,1024198045868680,312,-6,2
OrientationDeg,1636164833490,1024198061751492,311,-6,2
OrientationDeg,1636164833506,1024198077634305,311,-6,2
OrientationDeg,1636164833522,1024198093515555,311,-6,2
OrientationDeg,1636164833538,1024198109398367,311,-6,2
OrientationDeg,1636164833554,1024198125279617,311,-6,2
OrientationDeg,1636164833570,1024198141162430,311,-6,2
OrientationDeg,1636164833586,1024198157043680,311,-6,2
OrientationDeg,1636164833602,1024198172926492,311,-6,2
OrientationDeg,1636164833617,1024198188807742,311,-6,2
OrientationDeg,1636164833633,1024198204696805,311,-6,2
OrientationDeg,1636164833649,1024198220571805,311,-6,2
OrientationDeg,1636164833665,1024198236457742,311,-6,2
OrientationDeg,1636164833681,1024198252337430,311,-6,2
OrientationDeg,1636164833697,1024198268220242,311,-6,2
OrientationDeg,1636164833713,1024198284109305,311,-6,2
OrientationDeg,1636164833728,1024198299982742,311,-6,2
OrientationDeg,1636164833744,1024198315867117,311,-6,2
OrientationDeg,1636164833760,1024198331748367,311,-6,2
OrientationDeg,1636164833776,1024198347629617,311,-6,2
OrientationDeg,1636164833792,1024198363510867,311,-6,2
OrientationDeg,1636164833808,1024198379393680,311,-6,2
OrientationDeg,1636164833824,1024198395274930,311,-6,2
Status,1636164834000,29,0,1,23,1575420032,22.00,314.31,41.75,1,1,1,
Status,1636164834000,29,1,1,10,1575420032,16.00,277.47,26.26,1,1,1,
Status,1636164834000,29,2,1,18,1575420032,16.00,353.77,38.79,1,1,1,
Status,1636164834000,29,3,1,32,1575420032,14.00,212.24,14.14,1,1,1,
Status,1636164834000,29,4,1,29,1575420032,21.00,167.89,69.92,1,1,1,
Status,1636164834000,29,5,3,8,1605374976,18.00,252.43,51.98,1,1,0,
Status,1636164834000,29,6,1,13,1575420032,0.00,39.46,14.85,0,1,1,
Status,1636164834000,29,7,1,15,1575420032,0.00,38.30,43.65,0,1,1,
Status,1636164834000,29,8,1,24,1575420032,0.00,125.02,27.84,0,1,1,
Status,1636164834000,29,9,1,26,1575420032,0.00,273.62,6.44,0,1,1,
Status,1636164834000,29,10,3,7,1604812544,0.00,350.46,54.16,0,0,0,
Status,1636164834000,29,11,3,20,1603124992,0.00,134.70,11.40,0,1,0,
Status,1636164834000,29,12,3,21,1604249984,0.00,86.19,57.83,0,1,1,
Status,1636164834000,29,13,3,6,1599750016,0.00,23.84,11.47,0,1,1,
Status,1636164834000,29,14,3,22,1600312448,0.00,0.55,43.11,0,0,1,
Status,1636164834000,29,15,5,6,1561097984,0.00,105.55,61.92,0,0,1,
Status,1636164834000,29,16,5,8,1561097984,0.00,43.54,33.95,0,0,0,
Status,1636164834000,29,17,5,9,1561097984,0.00,133.42,60.47,0,0,1,
Status,1636164834000,29,18,5,10,1561097984,0.00,177.31,25.83,0,1,1,
Status,1636164834000,29,19,5,11,1561097984,0.00,136.26,16.68,0,0,0,
Status,1636164834000,29,20,5,13,1561097984,0.00,30.53,39.52,0,1,0,
Status,1636164834000,29,21,5,14,1561097984,0.00,35.73,11.99,0,1,0,
Status,1636164834000,29,22,5,2,1561097984,0.00,162.02,75.72,0,0,0,
Status,1636164834000,29,23,3,1,1602562560,0.00,224.19,11.04,0,0,0,
Status,1636164834000,29,24,5,7,1561097984,0.00,165.01,17.80,0,0,1,
Status,1636164834000,29,25,5,3,1561097984,0.00,260.37,32.71,0,0,0,
Status,1636164834000,29,26,5,5,1561097984,0.00,252.48,51.18,0,0,0,
Status,1636164834000,29,27,5,1,1561097984,0.00,168.44,75.29,0,0,0,
Status,1636164834000,29,28,1,25,1575420032,0.00,188.91,14.96,0,1,1,
Raw,1636164834999,1320200053000000000,18,,106540,0.46248215311788954,333.564095198152,143.89724191177012,0.0,0,23,220.0,3,6864524,25,22.0,96.75981299369596,0.1,16,0.0,0.0,1.57542003E9,,,,0,,1,0.0,,,,,,,
Raw,1636164834999,1320200053000000000,18,,106540,0.46248215311788954,333.564095198152,143.89724191177012,0.0,0,10,220.0,3,1918630,400,16.0,-89.02319509070367,0.1,16,0.0,0.0,1.57542003E9,,,,0,,1,0.0,,,,,,,
Raw,1636164834999,1320200053000000000,18,,106540,0.46248215311788954,333.564095198152,143.89724191177012,0.0,0,18,220.0,3,6553388,400,16.0,-289.8287302698009,0.1,16,0.0,0.0,1.57542003E9,,,,0,,1,0.0,,,,,,,
Raw,1636164834999,1320200053000000000,18,,106540,0.46248215311788954,333.564095198152,143.89724191177012,0.0,0,32,220.0,3,18933397,400,14.0,-587.2153302188963,0.1,16,0.0,0.0,1.57542003E9,,,,0,,1,0.0,,,,,,,
Raw,1636164834999,1320200053000000000,18,,106540,0.46248215311788954,333.564095198152,143.89724191177012,0.0,0,29,220.0,7,931256289,25,21.0,312.3345572326798,0.1,16,0.0,0.0,1.57542003E9,,,,0,,1,0.0,,,,,,,
Raw,1636164834999,1320200053000000000,18,,106540,0.46248215311788954,333.564095198152,143.89724191177012,0.0,0,8,220.0,33,2455832,25,18.0,-128.51995281224927,0.1,16,0.0,0.0,1.60537498E9,,,,0,,3,0.0,,,,,,,
OrientationDeg,1636164833840,1024198411157742,311,-6,2
OrientationDeg,1636164833856,1024198427040555,311,-6,2
OrientationDeg,1636164833871,1024198442923367,311,-6,2
OrientationDeg,1636164833887,1024198458804617,311,-6,2
OrientationDeg,1636164833903,1024198474685867,311,-6,2
OrientationDeg,1636164833919,1024198490568680,311,-6,2
OrientationDeg,1636164833935,1024198506451492,311,-6,2
OrientationDeg,1636164833951,1024198522340555,311,-6,2
OrientationDeg,1636164833967,1024198538215555,311,-6,2
OrientationDeg,1636164833983,1024198554096805,311,-6,2
OrientationDeg,1636164833999,1024198569979617,311,-6,2
OrientationDeg,1636164834014,1024198585860867,311,-6,2
OrientationDeg,1636164834031,1024198601749930,311,-6,2
OrientationDeg,1636164834046,1024198617624930,311,-6,2
OrientationDeg,1636164834063,1024198633515555,311,-6,2
Fix,GPS,13.0421890,80.1994993,-58.536175,0.000000,83.284348,204.440765,1636164835000,0.0,0.0,1024198413231078
OrientationDeg,1636164834078,1024198649388992,311,-6,2
OrientationDeg,1636164834094,1024198665271805,311,-6,2
OrientationDeg,1636164834110,1024198681154617,311,-6,2
OrientationDeg,1636164834126,1024198697035867,311,-6,2
OrientationDeg,1636164834141,1024198712918680,311,-6,2
OrientationDeg,1636164834157,1024198728799930,311,-6,2
OrientationDeg,1636164834173,1024198744682742,311,-6,2
OrientationDeg,1636164834189,1024198760573367,311,-6,2
OrientationDeg,1636164834206,1024198776446805,311,-6,2
OrientationDeg,1636164834222,1024198792328055,311,-6,2
OrientationDeg,1636164834237,1024198808210867,311,-6,2
OrientationDeg,1636164834253,1024198824092117,311,-6,2
OrientationDeg,1636164834268,1024198839974930,311,-6,2
OrientationDeg,1636164834285,1024198855857742,311,-6,2
OrientationDeg,1636164834300,1024198871756180,311,-6,2
OrientationDeg,1636164834316,1024198887621805,311,-6,2
OrientationDeg,1636164834332,1024198903503055,311,-6,2
OrientationDeg,1636164834349,1024198919385867,311,-6,2
OrientationDeg,1636164834364,1024198935268680,311,-6,2
OrientationDeg,1636164834380,1024198951149930,311,-6,2
OrientationDeg,1636164834396,1024198967031180,311,-6,2
OrientationDeg,1636164834411,1024198982913992,311,-6,2
OrientationDeg,1636164834428,1024198998806180,311,-6,2
OrientationDeg,1636164834444,1024199014678055,311,-6,2
OrientationDeg,1636164834460,1024199030565555,311,-6,2
OrientationDeg,1636164834475,1024199046442117,311,-6,2
OrientationDeg,1636164834491,1024199062324930,311,-6,2
OrientationDeg,1636164834507,1024199078206180,311,-6,2
OrientationDeg,1636164834523,1024199094088992,311,-6,2
OrientationDeg,1636164834538,1024199109971805,311,-6,2
OrientationDeg,1636164834555,1024199125853055,311,-6,2
OrientationDeg,1636164834571,1024199141735867,311,-6,2
OrientationDeg,1636164834587,1024199157617117,311,-6,2
OrientationDeg,1636164834602,1024199173499930,311,-6,2
OrientationDeg,1636164834619,1024199189381180,311,-6,2
OrientationDeg,1636164834634,1024199205263992,311,-6,2
OrientationDeg,1636164834650,1024199221145242,311,-6,2
OrientationDeg,1636164834667,1024199237028055,311,-6,2
OrientationDeg,1636164834681,1024199252910867,311,-6,2
OrientationDeg,1636164834697,1024199268793680,311,-6,2
OrientationDeg,1636164834714,1024199284674930,311,-6,2
OrientationDeg,1636164834730,1024199300556180,311,-6,2
OrientationDeg,1636164834745,1024199316448367,311,-6,2
OrientationDeg,1636164834762,1024199332320242,311,-6,2
OrientationDeg,1636164834777,1024199348203055,311,-6,2
OrientationDeg,1636164834793,1024199364084305,311,-6,2
OrientationDeg,1636164834809,1024199379967117,311,-6,2
Status,1636164835000,29,0,1,23,1575420032,21.00,314.32,41.75,1,1,1,
Status,1636164835000,29,1,1,10,1575420032,26.00,277.48,26.26,1,1,1,
Status,1636164835000,29,2,1,18,1575420032,17.00,353.78,38.80,1,1,1,
Status,1636164835000,29,3,1,32,1575420032,13.00,212.24,14.15,1,1,1,
Status,1636164835000,29,4,1,29,1575420032,21.00,167.90,69.91,1,1,1,
Status,1636164835000,29,5,3,8,1605374976,20.00,252.44,51.98,1,1,0,
Status,1636164835000,29,6,1,13,1575420032,0.00,39.45,14.84,0,1,1,
Status,1636164835000,29,7,1,15,1575420032,0.00,38.30,43.64,0,1,1,
Status,1636164835000,29,8,1,24,1575420032,0.00,125.01,27.84,0,1,1,
Status,1636164835000,29,9,1,26,1575420032,0.00,273.61,6.44,0,1,1,
Status,1636164835000,29,10,3,7,1604812544,0.00,350.46,54.15,0,0,0,
Status,1636164835000,29,11,3,20,1603124992,0.00,134.71,11.39,0,1,0,
Status,1636164835000,29,12,3,21,1604249984,0.00,86.21,57.83,0,1,1,
Status,1636164835000,29,13,3,6,1599750016,0.00,23.84,11.46,0,1,1,
Status,1636164835000,29,14,3,22,1600312448,0.00,0.56,43.12,0,0,1,
Status,1636164835000,29,15,5,6,1561097984,0.00,105.54,61.93,0,0,1,
Status,1636164835000,29,16,5,8,1561097984,0.00,43.54,33.95,0,0,0,
Status,1636164835000,29,17,5,9,1561097984,0.00,133.42,60.47,0,0,1,
Status,1636164835000,29,18,5,10,1561097984,0.00,177.31,25.83,0,1,1,
Status,1636164835000,29,19,5,11,1561097984,0.00,136.26,16.67,0,0,0,
Status,1636164835000,29,20,5,13,1561097984,0.00,30.53,39.52,0,1,0,
Status,1636164835000,29,21,5,14,1561097984,0.00,35.74,11.98,0,1,0,
Status,1636164835000,29,22,5,2,1561097984,0.00,162.02,75.72,0,0,0,
Status,1636164835000,29,23,3,1,1602562560,0.00,224.19,11.05,0,0,0,
Status,1636164835000,29,24,5,7,1561097984,0.00,165.01,17.79,0,0,1,
Status,1636164835000,29,25,5,3,1561097984,0.00,260.37,32.71,0,0,0,
Status,1636164835000,29,26,5,5,1561097984,0.00,252.48,51.18,0,0,0,
Status,1636164835000,29,27,5,1,1561097984,0.00,168.44,75.29,0,0,0,
Status,1636164835000,29,28,1,25,1575420032,0.00,188.90,14.96,0,1,1,
Raw,1636164835999,1320200054000000000,18,,106670,0.18593689080444165,333.564095198152,141.88304975927664,0.0,0,23,220.0,3,6864204,25,21.0,96.78064867621288,0.1,16,0.0,0.0,1.57542003E9,,,,0,,1,0.0,,,,,,,
Raw,1636164835999,1320200054000000000,18,,106670,0.18593689080444165,333.564095198152,141.88304975927664,0.0,0,10,220.0,3,1918933,25,26.0,-88.12506751273759,0.1,16,0.0,0.0,1.57542003E9,,,,0,,1,0.0,,,,,,,
Raw,1636164835999,1320200054000000000,18,,106670,0.18593689080444165,333.564095198152,141.88304975927664,0.0,0,18,220.0,3,6554359,400,17.0,-289.9669037433341,0.1,16,0.0,0.0,1.57542003E9,,,,0,,1,0.0,,,,,,,
Raw,1636164835999,1320200054000000000,18,,106670,0.18593689080444165,333.564095198152,141.88304975927664,0.0,0,32,220.0,3,18935361,400,13.0,-591.2958341476042,0.1,16,0.0,0.0,1.57542003E9,,,,0,,1,0.0,,,,,,,
Raw,1636164835999,1320200054000000000,18,,106670,0.18593689080444165,333.564095198152,141.88304975927664,0.0,0,29,220.0,3,11255294,25,21.0,309.83975840499625,0.1,16,0.0,0.0,1.57542003E9,,,,0,,1,0.0,,,,,,,
Raw,1636164835999,1320200054000000000,18,,106670,0.18593689080444165,333.564095198152,141.88304975927664,0.0,0,8,220.0,33,2456238,25,20.0,-128.41377592094275,0.1,16,0.0,0.0,1.60537498E9,,,,0,,3,0.0,,,,,,,
OrientationDeg,1636164834825,1024199395848367,311,-6,2
OrientationDeg,1636164834840,1024199411731180,311,-6,2
OrientationDeg,1636164834856,1024199427612430,311,-6,2
OrientationDeg,1636164834872,1024199443495242,311,-6,2
OrientationDeg,1636164834889,1024199459378055,311,-6,2
OrientationDeg,1636164834904,1024199475259305,311,-6,2
OrientationDeg,1636164834920,1024199491142117,311,-6,2
OrientationDeg,1636164834936,1024199507023367,311,-6,2
OrientationDeg,1636164834952,1024199522906180,311,-6,2
OrientationDeg,1636164834967,1024199538788992,311,-6,2
OrientationDeg,1636164834984,1024199554671805,311,-6,2
OrientationDeg,1636164835000,1024199570551492,311,-6,2
OrientationDeg,1636164835016,1024199586434305,311,-6,2
OrientationDeg,1636164835031,1024199602317117,311,-6,2
OrientationDeg,1636164835048,1024199618198367,311,-6,2
OrientationDeg,1636164835063,1024199634081180,311,-6,2
OrientationDeg,1636164835078,1024199649962430,311,-6,2
Fix,GPS,13.0421890,80.1994993,-57.527004,0.000000,79.128670,115.377090,1636164836000,0.0,0.0,1024199402969099
OrientationDeg,1636164835094,1024199665846805,311,-6,2
OrientationDeg,1636164835110,1024199681726492,311,-6,2
OrientationDeg,1636164835126,1024199697609305,311,-6,2
OrientationDeg,1636164835142,1024199713492117,311,-6,2
OrientationDeg,1636164835158,1024199729373367,311,-6,2
OrientationDeg,1636164835175,1024199745268680,311,-6,2
OrientationDeg,1636164835190,1024199761137430,311,-6,2
OrientationDeg,1636164835207,1024199777020242,311,-6,2
OrientationDeg,1636164835222,1024199792901492,311,-6,2
OrientationDeg,1636164835237,1024199808784305,311,-6,2
OrientationDeg,1636164835254,1024199824665555,311,-6,2
OrientationDeg,1636164835269,1024199840548367,311,-6,2
OrientationDeg,1636164835285,1024199856431180,311,-6,2
OrientationDeg,1636164835301,1024199872312430,311,-6,2
OrientationDeg,1636164835317,1024199888195242,311,-6,2
OrientationDeg,1636164835333,1024199904084305,311,-6,2
OrientationDeg,1636164835348,1024199919957742,311,-6,2
OrientationDeg,1636164835365,1024199935842117,311,-6,2
OrientationDeg,1636164835381,1024199951723367,311,-6,2
OrientationDeg,1636164835396,1024199967604617,311,-6,2
OrientationDeg,1636164835413,1024199983488992,311,-6,2
OrientationDeg,1636164835429,1024199999370242,311,-6,2
OrientationDeg,1636164835444,1024200015251492,311,-6,2
OrientationDeg,1636164835461,1024200031134305,311,-6,2
OrientationDeg,1636164835476,1024200047015555,311,-6,2
OrientationDeg,1636164835491,1024200062909305,311,-6,2
OrientationDeg,1636164835507,1024200078779617,311,-6,2
OrientationDeg,1636164835523,1024200094662430,311,-6,2
OrientationDeg,1636164835539,1024200110545242,311,-6,2
OrientationDeg,1636164835555,1024200126426492,311,-6,2
OrientationDeg,1636164835571,1024200142309305,311,-6,2
OrientationDeg,1636164835588,1024200158190555,311,-6,2
OrientationDeg,1636164835603,1024200174071805,311,-6,2
OrientationDeg,1636164835618,1024200189954617,311,-6,2
OrientationDeg,1636164835634,1024200205837430,311,-6,2
OrientationDeg,1636164835651,1024200221720242,311,-6,2
OrientationDeg,1636164835666,1024200237601492,311,-6,2
OrientationDeg,1636164835682,1024200253482742,311,-6,2
OrientationDeg,1636164835698,1024200269373367,311,-6,2
OrientationDeg,1636164835715,1024200285248367,311,-6,2
OrientationDeg,1636164835730,1024200301131180,311,-6,2
OrientationDeg,1636164835746,1024200317012430,311,-6,2
OrientationDeg,1636164835762,1024200332893680,311,-6,2
OrientationDeg,1636164835778,1024200348774930,311,-6,2
OrientationDeg,1636164835793,1024200364657742,311,-6,2
OrientationDeg,1636164835810,1024200380542117,311,-6,2
OrientationDeg,1636164835825,1024200396421805,311,-6,2
Status,1636164836000,29,0,1,23,1575420032,20.00,314.33,41.75,1,1,1,
Status,1636164836000,29,1,1,10,1575420032,29.00,277.49,26.26,1,1,1,
Status,1636164836000,29,2,1,18,1575420032,19.00,353.79,38.80,1,1,1,
Status,1636164836000,29,3,1,32,1575420032,12.00,212.25,14.16,1,1,1,
Status,1636164836000,29,4,1,29,1575420032,20.00,167.90,69.90,1,1,1,
Status,1636164836000,29,5,3,8,1605374976,21.00,252.46,51.98,1,1,0,
Status,1636164836000,29,6,1,13,1575420032,0.00,39.45,14.83,0,1,1,
Status,1636164836000,29,7,1,15,1575420032,0.00,38.30,43.63,0,1,1,
Status,1636164836000,29,8,1,24,1575420032,0.00,125.01,27.84,0,1,1,
Status,1636164836000,29,9,1,26,1575420032,0.00,273.60,6.44,0,1,1,
Status,1636164836000,29,10,3,7,1604812544,0.00,350.47,54.14,0,0,0,
Status,1636164836000,29,11,3,20,1603124992,0.00,134.72,11.39,0,1,0,
Status,1636164836000,29,12,3,21,1604249984,0.00,86.23,57.83,0,1,1,
Status,1636164836000,29,13,3,6,1599750016,0.00,23.85,11.46,0,1,1,
Status,1636164836000,29,14,3,22,1600312448,0.00,0.56,43.13,0,0,1,
Status,1636164836000,29,15,5,6,1561097984,0.00,105.53,61.93,0,0,1,
Status,1636164836000,29,16,5,8,1561097984,0.00,43.54,33.96,0,0,0,
Status,1636164836000,29,17,5,9,1561097984,0.00,133.41,60.47,0,0,1,
Status,1636164836000,29,18,5,10,1561097984,0.00,177.31,25.83,0,1,1,
Status,1636164836000,29,19,5,11,1561097984,0.00,136.27,16.67,0,0,0,
Status,1636164836000,29,20,5,13,1561097984,0.00,30.53,39.52,0,1,0,
Status,1636164836000,29,21,5,14,1561097984,0.00,35.74,11.98,0,1,0,
Status,1636164836000,29,22,5,2,1561097984,0.00,162.02,75.72,0,0,0,
Status,1636164836000,29,23,3,1,1602562560,0.00,224.20,11.06,0,0,0,
Status,1636164836000,29,24,5,7,1561097984,0.00,165.01,17.79,0,0,1,
Status,1636164836000,29,25,5,3,1561097984,0.00,260.37,32.71,0,0,0,
Status,1636164836000,29,26,5,5,1561097984,0.00,252.48,51.18,0,0,0,
Status,1636164836000,29,27,5,1,1561097984,0.00,168.44,75.29,0,0,0,
Status,1636164836000,29,28,1,25,1575420032,0.00,188.90,14.95,0,1,1,
OrientationDeg,1636164835842,1024200412304617,311,-6,2
OrientationDeg,1636164835858,1024200428185867,311,-6,2
