# 
# Header Description:
# 
# Version: v3.0.0.10 Platform: 10 Manufacturer: HUAWEI Model: STK-L22
# 
# Raw,utcTimeMillis,TimeNanos,LeapSecond,TimeUncertaintyNanos,FullBiasNanos,BiasNanos,BiasUncertaintyNanos,DriftNanosPerSecond,DriftUncertaintyNanosPerSecond,HardwareClockDiscontinuityCount,Svid,TimeOffsetNanos,State,ReceivedSvTimeNanos,ReceivedSvTimeUncertaintyNanos,Cn0DbHz,PseudorangeRateMetersPerSecond,PseudorangeRateUncertaintyMetersPerSecond,AccumulatedDeltaRangeState,AccumulatedDeltaRangeMeters,AccumulatedDeltaRangeUncertaintyMeters,CarrierFrequencyHz,CarrierCycles,CarrierPhase,CarrierPhaseUncertainty,MultipathIndicator,SnrInDb,ConstellationType,AgcDb,BasebandCn0DbHz,FullInterSignalBiasNanos,FullInterSignalBiasUncertaintyNanos,SatelliteInterSignalBiasNanos,SatelliteInterSignalBiasUncertaintyNanos,CodeType,ChipsetElapsedRealtimeNanos
# 
# UncalAccel,utcTimeMillis,elapsedRealtimeNanos,UncalAccelXMps2,UncalAccelYMps2,UncalAccelZMps2,BiasXMps2,BiasYMps2,BiasZMps2
# 
# UncalGyro,utcTimeMillis,elapsedRealtimeNanos,UncalGyroXRadPerSec,UncalGyroYRadPerSec,UncalGyroZRadPerSec,DriftXRadPerSec,DriftYRadPerSec,DriftZRadPerSec
# 
# UncalMag,utcTimeMillis,elapsedRealtimeNanos,UncalMagXMicroT,UncalMagYMicroT,UncalMagZMicroT,BiasXMicroT,BiasYMicroT,BiasZMicroT
# 
# OrientationDeg,utcTimeMillis,elapsedRealtimeNanos,yawDeg,rollDeg,pitchDeg
# 
# Fix,Provider,LatitudeDegrees,LongitudeDegrees,AltitudeMeters,SpeedMps,AccuracyMeters,BearingDegrees,UnixTimeMillis,SpeedAccuracyMps,BearingAccuracyDegrees,elapsedRealtimeNanos
# 
# Nav,Svid,Type,Status,MessageId,Sub-messageId,Data(Bytes)
# 
# Status,UnixTimeMillis,SignalCount,SignalIndex,ConstellationType,Svid,CarrierFrequencyHz,Cn0DbHz,AzimuthDegrees,ElevationDegrees,UsedInFix,HasAlmanacData,HasEphemerisData,BasebandCn0DbHz
# 
OrientationDeg,1636162930623,1022295193860868,72,-8,-30
OrientationDeg,1636162930638,1022295209743681,72,-8,-30
OrientationDeg,1636162930655,1022295225629618,72,-8,-30
OrientationDeg,1636162930670,1022295241507743,72,-8,-30
OrientationDeg,1636162930686,1022295257390556,72,-8,-30
OrientationDeg,1636162930703,1022295273271806,72,-8,-30
OrientationDeg,1636162930718,1022295289154618,72,-8,-30
OrientationDeg,1636162930734,1022295305037431,72,-8,-30
OrientationDeg,1636162930749,1022295320918681,72,-8,-30
OrientationDeg,1636162930766,1022295336799931,72,-8,-30
OrientationDeg,1636162930781,1022295352682743,72,-8,-30
OrientationDeg,1636162930797,1022295368563993,72,-8,-30
OrientationDeg,1636162930814,1022295384448368,72,-8,-30
OrientationDeg,1636162930829,1022295400329618,72,-8,-30
OrientationDeg,1636162930845,1022295416210868,72,-8,-30
OrientationDeg,1636162930861,1022295432093681,72,-8,-30
OrientationDeg,1636162930876,1022295447974931,72,-8,-30
OrientationDeg,1636162930892,1022295463857743,72,-8,-30
OrientationDeg,1636162930908,1022295479740556,72,-8,-30
OrientationDeg,1636162930924,1022295495623368,72,-8,-30
OrientationDeg,1636162930941,1022295511504618,72,-8,-30
OrientationDeg,1636162930956,1022295527385868,72,-8,-30
OrientationDeg,1636162930972,1022295543268681,72,-8,-30
OrientationDeg,1636162930988,1022295559149931,72,-8,-30
OrientationDeg,1636162931004,1022295575032743,72,-8,-30
OrientationDeg,1636162931019,1022295590913993,72,-8,-30
OrientationDeg,1636162931035,1022295606796806,72,-8,-30
OrientationDeg,1636162931052,1022295622678056,72,-8,-30
OrientationDeg,1636162931068,1022295638560868,72,-8,-30
OrientationDeg,1636162931083,1022295654445243,73,-8,-30
OrientationDeg,1636162931100,1022295670324931,73,-8,-30
OrientationDeg,1636162931115,1022295686207743,73,-8,-30
OrientationDeg,1636162931132,1022295702088993,73,-8,-30
OrientationDeg,1636162931147,1022295717971806,73,-8,-29
OrientationDeg,1636162931162,1022295733853056,73,-8,-29
OrientationDeg,1636162931178,1022295749735868,73,-7,-29
OrientationDeg,1636162931194,1022295765617118,74,-7,-29
OrientationDeg,1636162931210,1022295781499931,74,-7,-29
OrientationDeg,1636162931227,1022295797382743,74,-7,-28
OrientationDeg,1636162931242,1022295813263993,74,-7,-28
OrientationDeg,1636162931259,1022295829145243,75,-7,-28
Status,1636161435000,29,0,1,29,1575420032,39.00,129.54,86.34,1,1,1,
Status,1636161435000,29,1,3,8,1605374976,26.00,227.98,42.55,1,1,0,
Status,1636161435000,29,2,5,5,1561097984,32.00,252.18,51.12,0,0,0,
Status,1636161435000,29,3,1,5,1575420032,17.00,40.01,12.03,1,1,1,
Status,1636161435000,29,4,5,2,1561097984,38.00,160.27,75.69,0,0,0,
Status,1636161435000,29,5,5,3,1561097984,27.00,260.49,32.73,0,0,0,
Status,1636161435000,29,6,1,15,1575420032,31.00,50.34,57.04,1,1,1,
Status,1636161435000,29,7,1,23,1575420032,15.00,293.89,42.55,1,1,1,
Status,1636161435000,29,8,5,7,1561097984,37.00,165.94,21.40,1,0,1,
Status,1636161435000,29,9,5,10,1561097984,34.00,178.02,30.56,1,1,1,
Status,1636161435000,29,10,5,11,1561097984,27.00,126.08,25.89,1,0,0,
Status,1636161435000,29,11,5,14,1561097984,31.00,30.95,21.99,1,1,0,
Status,1636161435000,29,12,1,2,1575420032,17.00,101.32,9.66,1,1,1,
Status,1636161435000,29,13,1,10,1575420032,21.00,261.86,22.43,1,1,1,
Status,1636161435000,29,14,1,12,1575420032,21.00,170.96,9.56,1,1,1,
Status,1636161435000,29,15,1,13,1575420032,12.00,47.39,25.78,1,1,1,
Status,1636161435000,29,16,1,18,1575420032,34.00,340.31,31.04,1,1,1,
Status,1636161435000,29,17,1,24,1575420032,30.00,139.45,21.94,1,1,1,
Status,1636161435000,29,18,1,25,1575420032,33.00,199.93,22.29,1,1,1,
Status,1636161435000,29,19,1,26,1575420032,18.00,287.07,6.48,0,1,1,
Status,1636161435000,29,20,3,6,1599750016,17.00,19.63,25.64,0,1,1,
Status,1636161435000,29,21,3,22,1600312448,13.00,351.37,28.38,0,0,1,
Status,1636161435000,29,22,3,20,1603124992,16.00,120.14,20.37,1,1,0,
Status,1636161435000,29,23,3,21,1604249984,34.00,52.40,53.34,1,1,1,
Status,1636161435000,29,24,3,7,1604812544,39.00,329.76,70.57,1,0,0,
Status,1636161435000,29,25,5,6,1561097984,29.00,115.57,55.45,1,0,1,
Status,1636161435000,29,26,5,8,1561097984,28.00,36.93,31.44,1,0,0,
Status,1636161435000,29,27,5,9,1561097984,17.00,137.67,52.61,1,0,1,
Status,1636161435000,29,28,5,13,1561097984,33.00,24.60,37.28,1,1,0,
OrientationDeg,1636162931274,1022295845028056,75,-7,-28
Fix,GPS,13.0419054,80.1995662,-82.567863,0.000000,4.700000,83.723114,1636162932000,0.0,0.0,1022295850421836
Raw,1636162931999,1320198150000000000,18,,4976,0.7116685529017559,333.564095198152,142.2782859159882,0.0,0,29,220.0,16399,524549932343428,5,39.0,81.41159128281288,0.1,16,0.0,0.0,1.57542003E9,,,,0,,1,0.0,,,,,,,
Raw,1636162931999,1320198150000000000,18,,4976,0.7116685529017559,333.564095198152,142.2782859159882,0.0,0,8,220.0,33,666575,25,26.0,-378.66983908466875,0.1,16,0.0,0.0,1.60537498E9,,,,0,,3,0.0,,,,,,,
Raw,1636162931999,1320198150000000000,18,,4976,0.7116685529017559,333.564095198152,142.2782859159882,0.0,0,5,220.0,259,18709648,10,31.0,41.77487546153042,0.1,16,0.0,0.0,1.56109798E9,,,,0,,5,0.0,,,,,,,
Raw,1636162931999,1320198150000000000,18,,4976,0.7116685529017559,333.564095198152,142.2782859159882,0.0,0,5,220.0,3,18593134,400,17.0,509.84257149975747,0.1,16,0.0,0.0,1.57542003E9,,,,0,,1,0.0,,,,,,,
Raw,1636162931999,1320198150000000000,18,,4976,0.7116685529017559,333.564095198152,142.2782859159882,0.0,0,2,220.0,17167,524549880108776,10,37.0,42.73986446095967,0.1,16,0.0,0.0,1.56109798E9,,,,0,,5,0.0,,,,,,,
Raw,1636162931999,1320198150000000000,18,,4976,0.7116685529017559,333.564095198152,142.2782859159882,0.0,0,3,220.0,259,15836801,25,26.0,42.494928415232984,0.1,16,0.0,0.0,1.56109798E9,,,,0,,5,0.0,,,,,,,
Raw,1636162931999,1320198150000000000,18,,4976,0.7116685529017559,333.564095198152,142.2782859159882,0.0,0,15,220.0,16399,524549931027562,10,31.0,331.0055219975766,0.1,16,0.0,0.0,1.57542003E9,,,,0,,1,0.0,,,,,,,
Raw,1636162931999,1320198150000000000,18,,4976,0.7116685529017559,333.564095198152,142.2782859159882,0.0,0,23,220.0,3,7108878,400,15.0,27.376990212360397,0.1,16,0.0,0.0,1.57542003E9,,,,0,,1,0.0,,,,,,,
Raw,1636162931999,1320198150000000000,18,,4976,0.7116685529017559,333.564095198152,142.2782859159882,0.0,0,7,220.0,17167,524549868311744,10,36.0,250.42792501701987,0.1,16,0.0,0.0,1.56109798E9,,,,0,,5,0.0,,,,,,,
Raw,1636162931999,1320198150000000000,18,,4976,0.7116685529017559,333.564095198152,142.2782859159882,0.0,0,10,220.0,17167,524549872399586,10,33.0,285.5983803540162,0.1,16,0.0,0.0,1.56109798E9,,,,0,,5,0.0,,,,,,,
Raw,1636162931999,1320198150000000000,18,,4976,0.7116685529017559,333.564095198152,142.2782859159882,0.0,0,11,220.0,259,19012389,25,26.0,435.863693370645,0.1,16,0.0,0.0,1.56109798E9,,,,0,,5,0.0,,,,,,,
Raw,1636162931999,1320198150000000000,18,,4976,0.7116685529017559,333.564095198152,142.2782859159882,0.0,0,14,220.0,17167,524549917511324,10,30.0,577.1740855347722,0.1,16,0.0,0.0,1.56109798E9,,,,0,,5,0.0,,,,,,,
Raw,1636162931999,1320198150000000000,18,,4976,0.7116685529017559,333.564095198152,142.2782859159882,0.0,0,2,220.0,3,16909838,400,17.0,244.85655447933823,0.1,16,0.0,0.0,1.57542003E9,,,,0,,1,0.0,,,,,,,
Raw,1636162931999,1320198150000000000,18,,4976,0.7116685529017559,333.564095198152,142.2782859159882,0.0,0,10,220.0,3,923900,25,21.0,-175.2269933524076,0.1,16,0.0,0.0,1.57542003E9,,,,0,,1,0.0,,,,,,,
Raw,1636162931999,1320198150000000000,18,,4976,0.7116685529017559,333.564095198152,142.2782859159882,0.0,0,12,220.0,3,16573082,25,21.0,496.334469539579,0.1,16,0.0,0.0,1.57542003E9,,,,0,,1,0.0,,,,,,,
Raw,1636162931999,1320198150000000000,18,,4976,0.7116685529017559,333.564095198152,142.2782859159882,0.0,0,13,220.0,3,3471602,400,12.0,524.6117805596441,0.1,16,0.0,0.0,1.57542003E9,,,,0,,1,0.0,,,,,,,
Raw,1636162931999,1320198150000000000,18,,4976,0.7116685529017559,333.564095198152,142.2782859159882,0.0,0,18,220.0,16399,524549924576235,10,34.0,-272.6403888082132,0.1,16,0.0,0.0,1.57542003E9,,,,0,,1,0.0,,,,,,,
Raw,1636162931999,1320198150000000000,18,,4976,0.7116685529017559,333.564095198152,142.2782859159882,0.0,0,24,220.0,16399,524549922013981,10,30.0,-292.9617589514237,0.1,16,0.0,0.0,1.57542003E9,,,,0,,1,0.0,,,,,,,
Raw,1636162931999,1320198150000000000,18,,4976,0.7116685529017559,333.564095198152,142.2782859159882,0.0,0,25,220.0,16399,524549921011010,10,33.0,446.05467778164893,0.1,16,0.0,0.0,1.57542003E9,,,,0,,1,0.0,,,,,,,
Raw,1636162931999,1320198150000000000,18,,4976,0.7116685529017559,333.564095198152,142.2782859159882,0.0,0,26,220.0,3,16083097,25,18.0,5.341611028416082,0.1,16,0.0,0.0,1.57542003E9,,,,0,,1,0.0,,,,,,,
Raw,1636162931999,1320198150000000000,18,,4976,0.7116685529017559,333.564095198152,142.2782859159882,0.0,0,6,220.0,33,6327975,400,17.0,750.574361269484,0.1,16,0.0,0.0,1.59975002E9,,,,0,,3,0.0,,,,,,,
Raw,1636162931999,1320198150000000000,18,,4976,0.7116685529017559,333.564095198152,142.2782859159882,0.0,0,22,220.0,33,6943605,400,13.0,-561.3482381604765,0.1,16,0.0,0.0,1.60031245E9,,,,0,,3,0.0,,,,,,,
Raw,1636162931999,1320198150000000000,18,,4976,0.7116685529017559,333.564095198152,142.2782859159882,0.0,0,20,220.0,33,4579353,400,16.0,418.2430307607501,0.1,16,0.0,0.0,1.60312499E9,,,,0,,3,0.0,,,,,,,
Raw,1636162931999,1320198150000000000,18,,4976,0.7116685529017559,333.564095198152,142.2782859159882,0.0,0,21,220.0,99,1932720794,10,34.0,-180.47509568421296,0.1,16,0.0,0.0,1.60424998E9,,,,0,,3,0.0,,,,,,,
Raw,1636162931999,1320198150000000000,18,,4976,0.7116685529017559,333.564095198152,142.2782859159882,0.0,0,7,220.0,99,1935100511,5,39.0,277.0724165148529,0.1,16,0.0,0.0,1.60481254E9,,,,0,,3,0.0,,,,,,,
Raw,1636162931999,1320198150000000000,18,,4976,0.7116685529017559,333.564095198152,142.2782859159882,0.0,0,6,220.0,259,17491740,10,28.0,-156.34592412771136,0.1,16,0.0,0.0,1.56109798E9,,,,0,,5,0.0,,,,,,,
Raw,1636162931999,1320198150000000000,18,,4976,0.7116685529017559,333.564095198152,142.2782859159882,0.0,0,8,220.0,17167,524549870944272,25,27.0,-55.18143516919733,0.1,16,0.0,0.0,1.56109798E9,,,,0,,5,0.0,,,,,,,
Raw,1636162931999,1320198150000000000,18,,4976,0.7116685529017559,333.564095198152,142.2782859159882,0.0,0,9,220.0,259,15995007,400,16.0,-179.01873905925544,0.1,16,0.0,0.0,1.56109798E9,,,,0,,5,0.0,,,,,,,
Raw,1636162931999,1320198150000000000,18,,4976,0.7116685529017559,333.564095198152,142.2782859159882,0.0,0,13,220.0,259,13618356,10,32.0,-42.09063638794917,0.1,16,0.0,0.0,1.56109798E9,,,,0,,5,0.0,,,,,,,
OrientationDeg,1636162931289,1022295860910868,75,-7,-27
OrientationDeg,1636162931305,1022295876792118,76,-7,-27
OrientationDeg,1636162931321,1022295892674931,76,-7,-27
OrientationDeg,1636162931338,1022295908557743,76,-7,-27
OrientationDeg,1636162931353,1022295924438993,76,-7,-27
OrientationDeg,1636162931370,1022295940320243,76,-7,-27
OrientationDeg,1636162931385,1022295956203056,76,-7,-28
OrientationDeg,1636162931401,1022295972085868,76,-7,-28
OrientationDeg,1636162931417,1022295987967118,76,-7,-28
OrientationDeg,1636162931433,1022296003849931,76,-7,-28
OrientationDeg,1636162931448,1022296019731181,76,-7,-28
OrientationDeg,1636162931465,1022296035613993,76,-7,-28
OrientationDeg,1636162931480,1022296051495243,76,-7,-28
OrientationDeg,1636162931496,1022296067378056,76,-7,-28
OrientationDeg,1636162931513,1022296083259306,76,-7,-28
OrientationDeg,1636162931528,1022296099143681,76,-7,-28
OrientationDeg,1636162931544,1022296115023368,77,-7,-27
OrientationDeg,1636162931559,1022296130906181,77,-7,-27
OrientationDeg,1636162931575,1022296146787431,77,-7,-27
OrientationDeg,1636162931592,1022296162670243,77,-7,-27
OrientationDeg,1636162931607,1022296178554618,78,-7,-26
OrientationDeg,1636162931624,1022296194434306,78,-7,-26
OrientationDeg,1636162931639,1022296210315556,78,-7,-26
OrientationDeg,1636162931655,1022296226198368,78,-8,-26
OrientationDeg,1636162931671,1022296242079618,78,-8,-26
OrientationDeg,1636162931686,1022296257962431,78,-8,-26
OrientationDeg,1636162931702,1022296273845243,78,-8,-26
OrientationDeg,1636162931719,1022296289728056,78,-8,-26
OrientationDeg,1636162931734,1022296305609306,78,-8,-26
OrientationDeg,1636162931750,1022296321492118,78,-8,-26
OrientationDeg,1636162931766,1022296337378056,78,-8,-26
OrientationDeg,1636162931782,1022296353256181,78,-8,-26
OrientationDeg,1636162931798,1022296369137431,78,-8,-26
OrientationDeg,1636162931814,1022296385021806,77,-8,-26
OrientationDeg,1636162931829,1022296400903056,77,-8,-26
OrientationDeg,1636162931846,1022296416784306,77,-8,-26
OrientationDeg,1636162931862,1022296432667118,77,-8,-26
OrientationDeg,1636162931877,1022296448548368,77,-8,-26
OrientationDeg,1636162931894,1022296464431181,77,-8,-26
OrientationDeg,1636162931909,1022296480313993,77,-8,-26
OrientationDeg,1636162931925,1022296496193681,77,-8,-27
OrientationDeg,1636162931942,1022296512076493,77,-8,-27
OrientationDeg,1636162931956,1022296527959306,78,-8,-27
OrientationDeg,1636162931972,1022296543842118,78,-8,-27
OrientationDeg,1636162931988,1022296559723368,78,-8,-27
OrientationDeg,1636162932005,1022296575604618,78,-8,-27
OrientationDeg,1636162932020,1022296591487431,78,-8,-27
OrientationDeg,1636162932036,1022296607370243,78,-8,-27
OrientationDeg,1636162932053,1022296623251493,78,-8,-27
OrientationDeg,1636162932068,1022296639134306,78,-8,-27
OrientationDeg,1636162932084,1022296655018681,78,-8,-27
OrientationDeg,1636162932099,1022296670896806,78,-8,-27
OrientationDeg,1636162932115,1022296686779618,78,-8,-27
OrientationDeg,1636162932132,1022296702662431,78,-9,-27
OrientationDeg,1636162932147,1022296718543681,78,-9,-27
OrientationDeg,1636162932164,1022296734428056,78,-9,-27
OrientationDeg,1636162932180,1022296750309306,77,-9,-27
OrientationDeg,1636162932195,1022296766190556,77,-10,-27
OrientationDeg,1636162932211,1022296782071806,77,-10,-26
OrientationDeg,1636162932226,1022296797954618,77,-10,-26
OrientationDeg,1636162932242,1022296813835868,77,-10,-26
OrientationDeg,1636162932259,1022296829718681,77,-10,-26
OrientationDeg,1636162932275,1022296845599931,77,-10,-26
Raw,1636162932999,1320198151000000000,18,,5115,0.9303639565714548,333.564095198152,142.37750666232805,0.0,0,29,220.0,16399,524550932343161,10,34.0,81.32824855274521,0.1,16,0.0,0.0,1.57542003E9,,,,0,,1,0.0,,,,,,,
Raw,1636162932999,1320198151000000000,18,,5115,0.9303639565714548,333.564095198152,142.37750666232805,0.0,0,8,220.0,33,667837,25,27.0,-378.2480011651537,0.1,16,0.0,0.0,1.60537498E9,,,,0,,3,0.0,,,,,,,
Raw,1636162932999,1320198151000000000,18,,5115,0.9303639565714548,333.564095198152,142.37750666232805,0.0,0,5,220.0,775,878709511,10,30.0,41.91652522291454,0.1,16,0.0,0.0,1.56109798E9,,,,0,,5,0.0,,,,,,,
Raw,1636162932999,1320198151000000000,18,,5115,0.9303639565714548,333.564095198152,142.37750666232805,0.0,0,5,220.0,3,18591438,25,19.0,510.35030418424867,0.1,16,0.0,0.0,1.57542003E9,,,,0,,1,0.0,,,,,,,
Raw,1636162932999,1320198151000000000,18,,5115,0.9303639565714548,333.564095198152,142.37750666232805,0.0,0,2,220.0,17167,524550880108633,10,37.0,43.120548194679465,0.1,16,0.0,0.0,1.56109798E9,,,,0,,5,0.0,,,,,,,
Raw,1636162932999,1320198151000000000,18,,5115,0.9303639565714548,333.564095198152,142.37750666232805,0.0,0,3,220.0,259,15836801,25,26.0,42.494928415232984,0.1,16,0.0,0.0,1.56109798E9,,,,0,,5,0.0,,,,,,,
Raw,1636162932999,1320198151000000000,18,,5115,0.9303639565714548,333.564095198152,142.37750666232805,0.0,0,15,220.0,16399,524550931026457,10,31.0,331.2566468026489,0.1,16,0.0,0.0,1.57542003E9,,,,0,,1,0.0,,,,,,,
Raw,1636162932999,1320198151000000000,18,,5115,0.9303639565714548,333.564095198152,142.37750666232805,0.0,0,23,220.0,3,7108781,400,17.0,28.282794094411656,0.1,16,0.0,0.0,1.57542003E9,,,,0,,1,0.0,,,,,,,
Raw,1636162932999,1320198151000000000,18,,5115,0.9303639565714548,333.564095198152,142.37750666232805,0.0,0,7,220.0,17167,524550868310907,10,35.0,250.57105029675174,0.1,16,0.0,0.0,1.56109798E9,,,,0,,5,0.0,,,,,,,
Raw,1636162932999,1320198151000000000,18,,5115,0.9303639565714548,333.564095198152,142.37750666232805,0.0,0,10,220.0,17167,524550872398634,10,32.0,285.338689124812,0.1,16,0.0,0.0,1.56109798E9,,,,0,,5,0.0,,,,,,,
Raw,1636162932999,1320198151000000000,18,,5115,0.9303639565714548,333.564095198152,142.37750666232805,0.0,0,11,220.0,259,19010936,25,26.0,435.99206346689937,0.1,16,0.0,0.0,1.56109798E9,,,,0,,5,0.0,,,,,,,
Raw,1636162932999,1320198151000000000,18,,5115,0.9303639565714548,333.564095198152,142.37750666232805,0.0,0,14,220.0,17167,524550917509399,10,30.0,577.4382033190196,0.1,16,0.0,0.0,1.56109798E9,,,,0,,5,0.0,,,,,,,
Raw,1636162932999,1320198151000000000,18,,5115,0.9303639565714548,333.564095198152,142.37750666232805,0.0,0,2,220.0,3,16909038,25,18.0,244.95634643244557,0.1,16,0.0,0.0,1.57542003E9,,,,0,,1,0.0,,,,,,,
Raw,1636162932999,1320198151000000000,18,,5115,0.9303639565714548,333.564095198152,142.37750666232805,0.0,0,10,220.0,3,924522,25,20.0,-175.08004695991985,0.1,16,0.0,0.0,1.57542003E9,,,,0,,1,0.0,,,,,,,
Raw,1636162932999,1320198151000000000,18,,5115,0.9303639565714548,333.564095198152,142.37750666232805,0.0,0,12,220.0,3,16571425,25,21.0,496.33775938418694,0.1,16,0.0,0.0,1.57542003E9,,,,0,,1,0.0,,,,,,,
Raw,1636162932999,1320198151000000000,18,,5115,0.9303639565714548,333.564095198152,142.37750666232805,0.0,0,13,220.0,3,3469890,400,12.0,523.8364738470409,0.1,16,0.0,0.0,1.57542003E9,,,,0,,1,0.0,,,,,,,
Raw,1636162932999,1320198151000000000,18,,5115,0.9303639565714548,333.564095198152,142.37750666232805,0.0,0,18,220.0,16399,524550924577144,10,35.0,-272.6930263219401,0.1,16,0.0,0.0,1.57542003E9,,,,0,,1,0.0,,,,,,,
Raw,1636162932999,1320198151000000000,18,,5115,0.9303639565714548,333.564095198152,142.37750666232805,0.0,0,24,220.0,16399,524550922014965,10,28.0,-293.11199518851936,0.1,16,0.0,0.0,1.57542003E9,,,,0,,1,0.0,,,,,,,
Raw,1636162932999,1320198151000000000,18,,5115,0.9303639565714548,333.564095198152,142.37750666232805,0.0,0,25,220.0,16399,524550921009523,10,34.0,446.2246530863922,0.1,16,0.0,0.0,1.57542003E9,,,,0,,1,0.0,,,,,,,
Raw,1636162932999,1320198151000000000,18,,5115,0.9303639565714548,333.564095198152,142.37750666232805,0.0,0,26,220.0,3,16083039,400,16.0,2.113176853163168,0.1,16,0.0,0.0,1.57542003E9,,,,0,,1,0.0,,,,,,,
Raw,1636162932999,1320198151000000000,18,,5115,0.9303639565714548,333.564095198152,142.37750666232805,0.0,0,6,220.0,33,6325476,25,18.0,750.7586643661739,0.1,16,0.0,0.0,1.59975002E9,,,,0,,3,0.0,,,,,,,
Raw,1636162932999,1320198151000000000,18,,5115,0.9303639565714548,333.564095198152,142.37750666232805,0.0,0,22,220.0,33,6945473,400,15.0,-562.174431855583,0.1,16,0.0,0.0,1.60031245E9,,,,0,,3,0.0,,,,,,,
Raw,1636162932999,1320198151000000000,18,,5115,0.9303639565714548,333.564095198152,142.37750666232805,0.0,0,20,220.0,33,4577932,400,16.0,418.1625679088005,0.1,16,0.0,0.0,1.60312499E9,,,,0,,3,0.0,,,,,,,
Raw,1636162932999,1320198151000000000,18,,5115,0.9303639565714548,333.564095198152,142.37750666232805,0.0,0,21,220.0,99,932721395,10,33.0,-180.38033096739946,0.1,16,0.0,0.0,1.60424998E9,,,,0,,3,0.0,,,,,,,
Raw,1636162932999,1320198151000000000,18,,5115,0.9303639565714548,333.564095198152,142.37750666232805,0.0,0,7,220.0,99,935099597,5,39.0,277.3451284116702,0.1,16,0.0,0.0,1.60481254E9,,,,0,,3,0.0,,,,,,,
Raw,1636162932999,1320198151000000000,18,,5115,0.9303639565714548,333.564095198152,142.37750666232805,0.0,0,6,220.0,259,17492261,10,29.0,-156.4197000450989,0.1,16,0.0,0.0,1.56109798E9,,,,0,,5,0.0,,,,,,,
Raw,1636162932999,1320198151000000000,18,,5115,0.9303639565714548,333.564095198152,142.37750666232805,0.0,0,8,220.0,17167,524550870944460,10,28.0,-55.45440606353129,0.1,16,0.0,0.0,1.56109798E9,,,,0,,5,0.0,,,,,,,
Raw,1636162932999,1320198151000000000,18,,5115,0.9303639565714548,333.564095198152,142.37750666232805,0.0,0,9,220.0,259,15995602,400,16.0,-178.75019471996472,0.1,16,0.0,0.0,1.56109798E9,,,,0,,5,0.0,,,,,,,
Raw,1636162932999,1320198151000000000,18,,5115,0.9303639565714548,333.564095198152,142.37750666232805,0.0,0,13,220.0,259,13618497,10,32.0,-42.39754420428141,0.1,16,0.0,0.0,1.56109798E9,,,,0,,5,0.0,,,,,,,
OrientationDeg,1636162932290,1022296861488993,76,-9,-26
OrientationDeg,1636162932307,1022296877365556,76,-9,-26
OrientationDeg,1636162932322,1022296893248368,76,-8,-27
OrientationDeg,1636162932338,1022296909129618,76,-8,-27
OrientationDeg,1636162932355,1022296925012431,76,-8,-27
OrientationDeg,1636162932369,1022296940893681,76,-8,-27
OrientationDeg,1636162932385,1022296956774931,77,-8,-27
Fix,GPS,13.0419054,80.1995662,-82.567863,0.000000,3.000000,84.547394,1636162933000,0.0,0.0,1022296861047877
OrientationDeg,1636162932401,1022296972657743,77,-7,-28
Status,1636162933000,29,0,1,29,1575420032,34.00,129.64,86.33,1,1,1,
Status,1636162933000,29,1,3,8,1605374976,27.00,227.99,42.55,1,1,0,
Status,1636162933000,29,2,5,5,1561097984,31.00,252.18,51.12,0,0,0,
Status,1636162933000,29,3,1,5,1575420032,19.00,40.01,12.02,1,1,1,
Status,1636162933000,29,4,5,2,1561097984,38.00,160.27,75.69,0,0,0,
Status,1636162933000,29,5,5,3,1561097984,27.00,260.49,32.73,0,0,0,
Status,1636162933000,29,6,1,15,1575420032,31.00,50.33,57.03,1,1,1,
Status,1636162933000,29,7,1,23,1575420032,17.00,293.90,42.55,1,1,1,
Status,1636162933000,29,8,5,7,1561097984,36.00,165.94,21.39,1,0,1,
Status,1636162933000,29,9,5,10,1561097984,33.00,178.02,30.55,1,1,1,
Status,1636162933000,29,10,5,11,1561097984,27.00,126.09,25.88,1,0,0,
Status,1636162933000,29,11,5,14,1561097984,31.00,30.96,21.98,1,1,0,
Status,1636162933000,29,12,1,2,1575420032,18.00,101.33,9.65,1,1,1,
Status,1636162933000,29,13,1,10,1575420032,20.00,261.87,22.43,1,1,1,
Status,1636162933000,29,14,1,12,1575420032,21.00,170.95,9.56,1,1,1,
Status,1636162933000,29,15,1,13,1575420032,12.00,47.39,25.78,1,1,1,
Status,1636162933000,29,16,1,18,1575420032,35.00,340.32,31.04,1,1,1,
Status,1636162933000,29,17,1,24,1575420032,28.00,139.44,21.94,1,1,1,
Status,1636162933000,29,18,1,25,1575420032,34.00,199.93,22.29,1,1,1,
Status,1636162933000,29,19,1,26,1575420032,16.00,287.06,6.48,1,1,1,
Status,1636162933000,29,20,3,6,1599750016,18.00,19.64,25.63,0,1,1,
Status,1636162933000,29,21,3,22,1600312448,15.00,351.38,28.39,0,0,1,
Status,1636162933000,29,22,3,20,1603124992,16.00,120.15,20.37,1,1,0,
Status,1636162933000,29,23,3,21,1604249984,33.00,52.41,53.35,1,1,1,
Status,1636162933000,29,24,3,7,1604812544,39.00,329.78,70.56,1,0,0,
Status,1636162933000,29,25,5,6,1561097984,30.00,115.57,55.45,1,0,1,
Status,1636162933000,29,26,5,8,1561097984,29.00,36.93,31.44,1,0,0,
Status,1636162933000,29,27,5,9,1561097984,17.00,137.67,52.62,1,0,1,
Status,1636162933000,29,28,5,13,1561097984,33.00,24.60,37.28,1,1,0,
OrientationDeg,1636162932417,1022296988540556,77,-6,-28
OrientationDeg,1636162932433,1022297004421806,78,-5,-28
OrientationDeg,1636162932449,1022297020304618,78,-4,-29
OrientationDeg,1636162932465,1022297036187431,79,-4,-29
OrientationDeg,1636162932482,1022297052068681,80,-4,-29
OrientationDeg,1636162932496,1022297067949931,81,-5,-30
OrientationDeg,1636162932513,1022297083832743,81,-5,-30
OrientationDeg,1636162932529,1022297099713993,82,-6,-30
OrientationDeg,1636162932544,1022297115596806,82,-6,-30
OrientationDeg,1636162932560,1022297131479618,83,-6,-30
OrientationDeg,1636162932577,1022297147360868,83,-7,-31
OrientationDeg,1636162932592,1022297163243681,83,-7,-31
OrientationDeg,1636162932608,1022297179142118,83,-10,-31
OrientationDeg,1636162932624,1022297195007743,83,-12,-31
OrientationDeg,1636162932639,1022297210890556,83,-14,-31
OrientationDeg,1636162932655,1022297226771806,83,-16,-31
OrientationDeg,1636162932672,1022297242654618,83,-16,-30
OrientationDeg,1636162932687,1022297258542118,83,-18,-28
OrientationDeg,1636162932703,1022297274417118,83,-19,-27
OrientationDeg,1636162932720,1022297290301493,83,-19,-24
OrientationDeg,1636162932735,1022297306182743,82,-19,-22
OrientationDeg,1636162932751,1022297322063993,81,-17,-21
OrientationDeg,1636162932766,1022297337946806,81,-13,-19
OrientationDeg,1636162932783,1022297353828056,80,-12,-19
OrientationDeg,1636162932798,1022297369710868,80,-11,-19
OrientationDeg,1636162932815,1022297385592118,80,-12,-19
OrientationDeg,1636162932830,1022297401474931,79,-13,-19
OrientationDeg,1636162932847,1022297417357743,78,-14,-20
OrientationDeg,1636162932863,1022297433240556,78,-15,-20
OrientationDeg,1636162932878,1022297449124931,77,-15,-20
OrientationDeg,1636162932894,1022297465004618,76,-15,-20
OrientationDeg,1636162932910,1022297480885868,76,-15,-20
OrientationDeg,1636162932926,1022297496768681,76,-14,-19
OrientationDeg,1636162932942,1022297512649931,75,-14,-19
OrientationDeg,1636162932958,1022297528534306,75,-14,-19
OrientationDeg,1636162932974,1022297544413993,75,-14,-19
OrientationDeg,1636162932990,1022297560296806,75,-13,-19
OrientationDeg,1636162933005,1022297576178056,75,-13,-20
OrientationDeg,1636162933021,1022297592060868,75,-13,-20
OrientationDeg,1636162933036,1022297607943681,75,-13,-21
OrientationDeg,1636162933052,1022297623824931,75,-13,-21
OrientationDeg,1636162933069,1022297639707743,75,-14,-22
OrientationDeg,1636162933085,1022297655588993,75,-14,-23
OrientationDeg,1636162933100,1022297671470243,75,-14,-23
OrientationDeg,1636162933117,1022297687359306,75,-15,-24
OrientationDeg,1636162933132,1022297703235868,75,-15,-24
OrientationDeg,1636162933148,1022297719146806,74,-15,-25
OrientationDeg,1636162933163,1022297734999931,73,-14,-25
OrientationDeg,1636162933179,1022297750881181,73,-14,-25
OrientationDeg,1636162933195,1022297766763993,73,-14,-25
OrientationDeg,1636162933212,1022297782645243,72,-13,-25
OrientationDeg,1636162933228,1022297798528056,72,-13,-25
OrientationDeg,1636162933244,1022297814409306,72,-13,-26
OrientationDeg,1636162933260,1022297830292118,72,-13,-26
OrientationDeg,1636162933275,1022297846178056,72,-14,-26
Raw,1636162933999,1320198152000000000,18,,5260,0.10412740741412563,333.564095198152,142.88161830935152,0.0,0,29,220.0,3,12342894,10,37.0,81.51357646565884,0.1,16,0.0,0.0,1.57542003E9,,,,0,,1,0.0,,,,,,,
Raw,1636162933999,1320198152000000000,18,,5260,0.10412740741412563,333.564095198152,142.88161830935152,0.0,0,8,220.0,33,669097,10,28.0,-377.92947049123416,0.1,16,0.0,0.0,1.60537498E9,,,,0,,3,0.0,,,,,,,
Raw,1636162933999,1320198152000000000,18,,5260,0.10412740741412563,333.564095198152,142.88161830935152,0.0,0,5,220.0,259,18709369,10,30.0,41.73651198448889,0.1,16,0.0,0.0,1.56109798E9,,,,0,,5,0.0,,,,,,,
Raw,1636162933999,1320198152000000000,18,,5260,0.10412740741412563,333.564095198152,142.88161830935152,0.0,0,5,220.0,3,18589734,25,25.0,510.9391863690689,0.1,16,0.0,0.0,1.57542003E9,,,,0,,1,0.0,,,,,,,
Raw,1636162933999,1320198152000000000,18,,5260,0.10412740741412563,333.564095198152,142.88161830935152,0.0,0,2,220.0,17167,524551880108484,10,37.0,43.533693332049786,0.1,16,0.0,0.0,1.56109798E9,,,,0,,5,0.0,,,,,,,
Raw,1636162933999,1320198152000000000,18,,5260,0.10412740741412563,333.564095198152,142.88161830935152,0.0,0,3,220.0,259,15836801,25,26.0,334.2845837564129,0.1,16,0.0,0.0,1.56109798E9,,,,0,,5,0.0,,,,,,,
Raw,1636162933999,1320198152000000000,18,,5260,0.10412740741412563,333.564095198152,142.88161830935152,0.0,0,15,220.0,16399,524551931025351,10,33.0,331.3125741609838,0.1,16,0.0,0.0,1.57542003E9,,,,0,,1,0.0,,,,,,,
Raw,1636162933999,1320198152000000000,18,,5260,0.10412740741412563,333.564095198152,142.88161830935152,0.0,0,23,220.0,3,7108685,400,17.0,28.812459076289088,0.1,16,0.0,0.0,1.57542003E9,,,,0,,1,0.0,,,,,,,
Raw,1636162933999,1320198152000000000,18,,5260,0.10412740741412563,333.564095198152,142.88161830935152,0.0,0,7,220.0,17167,524551868310069,10,35.0,250.82041289752166,0.1,16,0.0,0.0,1.56109798E9,,,,0,,5,0.0,,,,,,,
Raw,1636162933999,1320198152000000000,18,,5260,0.10412740741412563,333.564095198152,142.88161830935152,0.0,0,10,220.0,17167,524551872397681,10,32.0,285.7459321887913,0.1,16,0.0,0.0,1.56109798E9,,,,0,,5,0.0,,,,,,,
Raw,1636162933999,1320198152000000000,18,,5260,0.10412740741412563,333.564095198152,142.88161830935152,0.0,0,11,220.0,259,19009483,25,26.0,436.0525597191572,0.1,16,0.0,0.0,1.56109798E9,,,,0,,5,0.0,,,,,,,
Raw,1636162933999,1320198152000000000,18,,5260,0.10412740741412563,333.564095198152,142.88161830935152,0.0,0,14,220.0,17167,524551917507472,10,28.0,577.4131195071079,0.1,16,0.0,0.0,1.56109798E9,,,,0,,5,0.0,,,,,,,
Raw,1636162933999,1320198152000000000,18,,5260,0.10412740741412563,333.564095198152,142.88161830935152,0.0,0,2,220.0,3,16908224,25,18.0,245.1120657438878,0.1,16,0.0,0.0,1.57542003E9,,,,0,,1,0.0,,,,,,,
Raw,1636162933999,1320198152000000000,18,,5260,0.10412740741412563,333.564095198152,142.88161830935152,0.0,0,10,220.0,3,925103,25,20.0,-174.93748702690937,0.1,16,0.0,0.0,1.57542003E9,,,,0,,1,0.0,,,,,,,
Raw,1636162933999,1320198152000000000,18,,5260,0.10412740741412563,333.564095198152,142.88161830935152,0.0,0,12,220.0,3,16569768,25,22.0,497.0593319681939,0.1,16,0.0,0.0,1.57542003E9,,,,0,,1,0.0,,,,,,,
Raw,1636162933999,1320198152000000000,18,,5260,0.10412740741412563,333.564095198152,142.88161830935152,0.0,0,13,220.0,3,3468185,400,12.0,522.5885261257645,0.1,16,0.0,0.0,1.57542003E9,,,,0,,1,0.0,,,,,,,
Raw,1636162933999,1320198152000000000,18,,5260,0.10412740741412563,333.564095198152,142.88161830935152,0.0,0,18,220.0,16399,524551924578053,10,35.0,-272.60091067291796,0.1,16,0.0,0.0,1.57542003E9,,,,0,,1,0.0,,,,,,,
Raw,1636162933999,1320198152000000000,18,,5260,0.10412740741412563,333.564095198152,142.88161830935152,0.0,0,24,220.0,16399,524551922015950,10,29.0,-292.8838992957026,0.1,16,0.0,0.0,1.57542003E9,,,,0,,1,0.0,,,,,,,
Raw,1636162933999,1320198152000000000,18,,5260,0.10412740741412563,333.564095198152,142.88161830935152,0.0,0,25,220.0,16399,524551921008032,10,36.0,446.4132708439138,0.1,16,0.0,0.0,1.57542003E9,,,,0,,1,0.0,,,,,,,
Raw,1636162933999,1320198152000000000,18,,5260,0.10412740741412563,333.564095198152,142.88161830935152,0.0,0,26,220.0,3,16082931,400,15.0,0.9441854024771601,0.1,16,0.0,0.0,1.57542003E9,,,,0,,1,0.0,,,,,,,
Raw,1636162933999,1320198152000000000,18,,5260,0.10412740741412563,333.564095198152,142.88161830935152,0.0,0,6,220.0,33,6322980,25,26.0,750.3065458321065,0.1,16,0.0,0.0,1.59975002E9,,,,0,,3,0.0,,,,,,,
Raw,1636162933999,1320198152000000000,18,,5260,0.10412740741412563,333.564095198152,142.88161830935152,0.0,0,22,220.0,33,6947334,400,14.0,-562.0909488689693,0.1,16,0.0,0.0,1.60031245E9,,,,0,,3,0.0,,,,,,,
Raw,1636162933999,1320198152000000000,18,,5260,0.10412740741412563,333.564095198152,142.88161830935152,0.0,0,20,220.0,33,4576492,400,15.0,418.09072607670265,0.1,16,0.0,0.0,1.60312499E9,,,,0,,3,0.0,,,,,,,
Raw,1636162933999,1320198152000000000,18,,5260,0.10412740741412563,333.564095198152,142.88161830935152,0.0,0,21,220.0,99,1932721996,10,30.0,-180.19367319185767,0.1,16,0.0,0.0,1.60424998E9,,,,0,,3,0.0,,,,,,,
Raw,1636162933999,1320198152000000000,18,,5260,0.10412740741412563,333.564095198152,142.88161830935152,0.0,0,7,220.0,99,1935098666,10,36.0,277.5891337930331,0.1,16,0.0,0.0,1.60481254E9,,,,0,,3,0.0,,,,,,,
Raw,1636162933999,1320198152000000000,18,,5260,0.10412740741412563,333.564095198152,142.88161830935152,0.0,0,6,220.0,259,17492782,10,29.0,-156.2721482103238,0.1,16,0.0,0.0,1.56109798E9,,,,0,,5,0.0,,,,,,,
Raw,1636162933999,1320198152000000000,18,,5260,0.10412740741412563,333.564095198152,142.88161830935152,0.0,0,8,220.0,17167,524551870944645,10,29.0,-55.28177041684441,0.1,16,0.0,0.0,1.56109798E9,,,,0,,5,0.0,,,,,,,
Raw,1636162933999,1320198152000000000,18,,5260,0.10412740741412563,333.564095198152,142.88161830935152,0.0,0,9,220.0,259,15996198,400,16.0,-178.4609931238055,0.1,16,0.0,0.0,1.56109798E9,,,,0,,5,0.0,,,,,,,
Raw,1636162933999,1320198152000000000,18,,5260,0.10412740741412563,333.564095198152,142.88161830935152,0.0,0,13,220.0,259,13618638,10,33.0,-42.111293644817685,0.1,16,0.0,0.0,1.56109798E9,,,,0,,5,0.0,,,,,,,
OrientationDeg,1636162933291,1022297862056181,71,-14,-27
OrientationDeg,1636162933306,1022297877937431,71,-14,-27
OrientationDeg,1636162933322,1022297893820243,71,-14,-27
OrientationDeg,1636162933338,1022297909703056,71,-14,-27
OrientationDeg,1636162933355,1022297925587431,71,-14,-27
OrientationDeg,1636162933370,1022297941467118,71,-14,-27
OrientationDeg,1636162933387,1022297957348368,70,-14,-27
OrientationDeg,1636162933402,1022297973232743,70,-14,-27
Status,1636162933000,30,0,1,29,1575420032,37.00,129.74,86.32,1,1,1,
Status,1636162933000,30,1,3,8,1605374976,28.00,228.00,42.56,1,1,0,
Status,1636162933000,30,2,5,5,1561097984,31.00,252.18,51.12,0,0,0,
Status,1636162933000,30,3,1,5,1575420032,25.00,40.02,12.02,1,1,1,
Status,1636162933000,30,4,5,2,1561097984,38.00,160.27,75.69,0,0,0,
Status,1636162933000,30,5,5,3,1561097984,27.00,260.49,32.73,0,0,0,
Status,1636162933000,30,6,1,15,1575420032,33.00,50.32,57.03,1,1,1,
Status,1636162933000,30,7,1,23,1575420032,17.00,293.91,42.55,1,1,1,
Status,1636162933000,30,8,5,7,1561097984,36.00,165.94,21.39,1,0,1,
Status,1636162933000,30,9,5,10,1561097984,33.00,178.02,30.55,1,1,1,
Status,1636162933000,30,10,5,11,1561097984,27.00,126.09,25.88,1,0,0,
Status,1636162933000,30,11,5,14,1561097984,29.00,30.96,21.98,1,1,0,
Status,1636162933000,30,12,1,2,1575420032,18.00,101.34,9.65,1,1,1,
Status,1636162933000,30,13,1,10,1575420032,20.00,261.87,22.43,1,1,1,
Status,1636162933000,30,14,1,12,1575420032,22.00,170.95,9.55,1,1,1,
Status,1636162933000,30,15,1,13,1575420032,12.00,47.38,25.77,1,1,1,
Status,1636162933000,30,16,1,18,1575420032,35.00,340.33,31.05,1,1,1,
Status,1636162933000,30,17,1,24,1575420032,29.00,139.44,21.95,1,1,1,
Status,1636162933000,30,18,1,25,1575420032,36.00,199.92,22.28,1,1,1,
Status,1636162933000,30,19,1,26,1575420032,15.00,287.06,6.48,1,1,1,
Status,1636162933000,30,20,3,6,1599750016,26.00,19.64,25.62,0,1,1,
Status,1636162933000,30,21,3,22,1600312448,14.00,351.38,28.40,0,0,1,
Status,1636162933000,30,22,3,20,1603124992,15.00,120.16,20.36,0,1,0,
Status,1636162933000,30,23,3,21,1604249984,30.00,52.43,53.35,1,1,1,
Status,1636162933000,30,24,3,7,1604812544,36.00,329.80,70.55,1,0,0,
Status,1636162933000,30,25,5,6,1561097984,30.00,115.56,55.45,1,0,1,
Status,1636162933000,30,26,5,8,1561097984,30.00,36.93,31.44,1,0,0,
Status,1636162933000,30,27,5,9,1561097984,17.00,137.67,52.62,1,0,1,
Status,1636162933000,30,28,5,13,1561097984,34.00,24.60,37.28,1,1,0,
Status,1636162933000,30,29,5,1,1561097984,0.00,168.28,75.49,0,0,0,
OrientationDeg,1636162933418,1022297989113993,70,-14,-27
Fix,GPS,13.0419054,80.1995662,-82.567863,0.000000,3.000000,84.603256,1636162934000,0.0,0.0,1022297850330169
OrientationDeg,1636162933433,1022298004995243,69,-14,-27
OrientationDeg,1636162933449,1022298020878056,69,-15,-27
OrientationDeg,1636162933465,1022298036759306,69,-15,-27
OrientationDeg,1636162933481,1022298052642118,68,-15,-26
OrientationDeg,1636162933498,1022298068523368,68,-16,-26
OrientationDeg,1636162933513,1022298084407743,68,-16,-26
OrientationDeg,1636162933530,1022298100288993,68,-16,-26
OrientationDeg,1636162933546,1022298116170243,67,-17,-26
OrientationDeg,1636162933562,1022298132053056,67,-17,-26
OrientationDeg,1636162933577,1022298147934306,67,-17,-26
OrientationDeg,1636162933592,1022298163818681,67,-17,-27
OrientationDeg,1636162933609,1022298179699931,67,-17,-27
OrientationDeg,1636162933625,1022298195581181,67,-17,-27
OrientationDeg,1636162933641,1022298211463993,67,-17,-27
OrientationDeg,1636162933656,1022298227345243,67,-17,-27
OrientationDeg,1636162933672,1022298243226493,67,-17,-27
OrientationDeg,1636162933688,1022298259109306,67,-17,-27
OrientationDeg,1636162933703,1022298274990556,67,-17,-27
OrientationDeg,1636162933719,1022298290881181,68,-17,-27
OrientationDeg,1636162933736,1022298306756181,68,-17,-27
OrientationDeg,1636162933751,1022298322637431,68,-17,-27
OrientationDeg,1636162933767,1022298338520243,68,-16,-27
OrientationDeg,1636162933784,1022298354403056,68,-16,-27
OrientationDeg,1636162933800,1022298370282743,69,-16,-28
OrientationDeg,1636162933815,1022298386165556,69,-16,-28
OrientationDeg,1636162933831,1022298402048368,69,-16,-28
OrientationDeg,1636162933846,1022298417929618,69,-16,-28
OrientationDeg,1636162933862,1022298433812431,69,-16,-28
OrientationDeg,1636162933878,1022298449701493,70,-16,-29
OrientationDeg,1636162933894,1022298465576493,70,-16,-29
OrientationDeg,1636162933910,1022298481460868,70,-16,-29
OrientationDeg,1636162933926,1022298497340556,70,-16,-29
OrientationDeg,1636162933942,1022298513224931,70,-16,-29
OrientationDeg,1636162933958,1022298529106181,70,-16,-29
OrientationDeg,1636162933973,1022298544987431,71,-16,-30
OrientationDeg,1636162933989,1022298560870243,71,-16,-30
OrientationDeg,1636162934005,1022298576751493,71,-16,-30
OrientationDeg,1636162934021,1022298592632743,71,-16,-30
OrientationDeg,1636162934037,1022298608532743,72,-16,-30
OrientationDeg,1636162934054,1022298624396806,72,-16,-30
OrientationDeg,1636162934069,1022298640279618,72,-16,-30
OrientationDeg,1636162934085,1022298656162431,73,-15,-30
OrientationDeg,1636162934101,1022298672043681,73,-15,-30
OrientationDeg,1636162934116,1022298687929618,74,-15,-29
OrientationDeg,1636162934132,1022298703809306,75,-15,-29
OrientationDeg,1636162934148,1022298719692118,75,-15,-29
OrientationDeg,1636162934165,1022298735573368,76,-15,-29
OrientationDeg,1636162934180,1022298751460868,76,-15,-29
OrientationDeg,1636162934197,1022298767335868,77,-14,-29
OrientationDeg,1636162934213,1022298783218681,78,-14,-29
OrientationDeg,1636162934228,1022298799101493,78,-14,-29
OrientationDeg,1636162934244,1022298814982743,79,-13,-30
OrientationDeg,1636162934259,1022298830865556,79,-13,-30
Raw,1636162934999,1320198153000000000,18,,5404,0.5927794498838921,333.564095198152,143.2948914037516,0.0,0,29,220.0,16399,524552932342629,5,44.0,81.94235287955962,0.1,16,0.0,0.0,1.57542003E9,,,,0,,1,0.0,,,,,,,
Raw,1636162934999,1320198153000000000,18,,5404,0.5927794498838921,333.564095198152,143.2948914037516,0.0,0,8,220.0,33,670353,10,28.0,-377.9782544683209,0.1,16,0.0,0.0,1.60537498E9,,,,0,,3,0.0,,,,,,,
Raw,1636162934999,1320198153000000000,18,,5404,0.5927794498838921,333.564095198152,143.2948914037516,0.0,0,5,220.0,259,18709232,10,31.0,42.15851023194572,0.1,16,0.0,0.0,1.56109798E9,,,,0,,5,0.0,,,,,,,
Raw,1636162934999,1320198153000000000,18,,5404,0.5927794498838921,333.564095198152,143.2948914037516,0.0,0,5,220.0,3,18588026,25,23.0,511.4085375331342,0.1,16,0.0,0.0,1.57542003E9,,,,0,,1,0.0,,,,,,,
Raw,1636162934999,1320198153000000000,18,,5404,0.5927794498838921,333.564095198152,143.2948914037516,0.0,0,2,220.0,17167,524552880108334,10,36.0,43.16924030015526,0.1,16,0.0,0.0,1.56109798E9,,,,0,,5,0.0,,,,,,,
Raw,1636162934999,1320198153000000000,18,,5404,0.5927794498838921,333.564095198152,143.2948914037516,0.0,0,3,220.0,259,15836801,25,26.0,334.2845837564129,0.1,16,0.0,0.0,1.56109798E9,,,,0,,5,0.0,,,,,,,
Raw,1636162934999,1320198153000000000,18,,5404,0.5927794498838921,333.564095198152,143.2948914037516,0.0,0,15,220.0,16399,524552931024245,10,33.0,331.5439598984085,0.1,16,0.0,0.0,1.57542003E9,,,,0,,1,0.0,,,,,,,
Raw,1636162934999,1320198153000000000,18,,5404,0.5927794498838921,333.564095198152,143.2948914037516,0.0,0,23,220.0,3,7108586,25,18.0,28.961598698515445,0.1,16,0.0,0.0,1.57542003E9,,,,0,,1,0.0,,,,,,,
Raw,1636162934999,1320198153000000000,18,,5404,0.5927794498838921,333.564095198152,143.2948914037516,0.0,0,7,220.0,17167,524552868309231,10,33.0,250.71565109483134,0.1,16,0.0,0.0,1.56109798E9,,,,0,,5,0.0,,,,,,,
Raw,1636162934999,1320198153000000000,18,,5404,0.5927794498838921,333.564095198152,143.2948914037516,0.0,0,10,220.0,17167,524552872396728,10,35.0,286.05431552347125,0.1,16,0.0,0.0,1.56109798E9,,,,0,,5,0.0,,,,,,,
Raw,1636162934999,1320198153000000000,18,,5404,0.5927794498838921,333.564095198152,143.2948914037516,0.0,0,11,220.0,775,2919008027,10,29.0,436.29897128323165,0.1,16,0.0,0.0,1.56109798E9,,,,0,,5,0.0,,,,,,,
Raw,1636162934999,1320198153000000000,18,,5404,0.5927794498838921,333.564095198152,143.2948914037516,0.0,0,14,220.0,17167,524552917505552,25,24.0,576.19139031517,0.1,16,0.0,0.0,1.56109798E9,,,,0,,5,0.0,,,,,,,
Raw,1636162934999,1320198153000000000,18,,5404,0.5927794498838921,333.564095198152,143.2948914037516,0.0,0,2,220.0,3,16907386,400,17.0,245.07697406806983,0.1,16,0.0,0.0,1.57542003E9,,,,0,,1,0.0,,,,,,,
Raw,1636162934999,1320198153000000000,18,,5404,0.5927794498838921,333.564095198152,143.2948914037516,0.0,0,10,220.0,3,925668,25,20.0,-174.67429945827462,0.1,16,0.0,0.0,1.57542003E9,,,,0,,1,0.0,,,,,,,
Raw,1636162934999,1320198153000000000,18,,5404,0.5927794498838921,333.564095198152,143.2948914037516,0.0,0,12,220.0,3,16568121,25,22.0,497.41902164532803,0.1,16,0.0,0.0,1.57542003E9,,,,0,,1,0.0,,,,,,,
Raw,1636162934999,1320198153000000000,18,,5404,0.5927794498838921,333.564095198152,143.2948914037516,0.0,0,13,220.0,3,3466456,400,11.0,521.3658005464822,0.1,16,0.0,0.0,1.57542003E9,,,,0,,1,0.0,,,,,,,
Raw,1636162934999,1320198153000000000,18,,5404,0.5927794498838921,333.564095198152,143.2948914037516,0.0,0,18,220.0,16399,524552924578965,10,35.0,-272.58117160527036,0.1,16,0.0,0.0,1.57542003E9,,,,0,,1,0.0,,,,,,,
Raw,1636162934999,1320198153000000000,18,,5404,0.5927794498838921,333.564095198152,143.2948914037516,0.0,0,24,220.0,16399,524552922016934,10,33.0,-292.9047349782195,0.1,16,0.0,0.0,1.57542003E9,,,,0,,1,0.0,,,,,,,
Raw,1636162934999,1320198153000000000,18,,5404,0.5927794498838921,333.564095198152,143.2948914037516,0.0,0,25,220.0,16399,524552921006542,10,37.0,446.46700497251004,0.1,16,0.0,0.0,1.57542003E9,,,,0,,1,0.0,,,,,,,
Raw,1636162934999,1320198153000000000,18,,5404,0.5927794498838921,333.564095198152,143.2948914037516,0.0,0,26,220.0,3,16082937,400,14.0,1.9673270755447447,0.1,16,0.0,0.0,1.57542003E9,,,,0,,1,0.0,,,,,,,
Raw,1636162934999,1320198153000000000,18,,5404,0.5927794498838921,333.564095198152,143.2948914037516,0.0,0,6,220.0,33,6320470,25,27.0,750.796100932689,0.1,16,0.0,0.0,1.59975002E9,,,,0,,3,0.0,,,,,,,
Raw,1636162934999,1320198153000000000,18,,5404,0.5927794498838921,333.564095198152,143.2948914037516,0.0,0,22,220.0,33,6949200,400,13.0,-562.0304956717664,0.1,16,0.0,0.0,1.60031245E9,,,,0,,3,0.0,,,,,,,
Raw,1636162934999,1320198153000000000,18,,5404,0.5927794498838921,333.564095198152,143.2948914037516,0.0,0,20,220.0,33,4575093,400,13.0,417.53610713290715,0.1,16,0.0,0.0,1.60312499E9,,,,0,,3,0.0,,,,,,,
Raw,1636162934999,1320198153000000000,18,,5404,0.5927794498838921,333.564095198152,143.2948914037516,0.0,0,21,220.0,99,932722597,10,31.0,-179.92373733184343,0.1,16,0.0,0.0,1.60424998E9,,,,0,,3,0.0,,,,,,,
Raw,1636162934999,1320198153000000000,18,,5404,0.5927794498838921,333.564095198152,143.2948914037516,0.0,0,7,220.0,99,935097741,10,36.0,277.94796523621375,0.1,16,0.0,0.0,1.60481254E9,,,,0,,3,0.0,,,,,,,
Raw,1636162934999,1320198153000000000,18,,5404,0.5927794498838921,333.564095198152,143.2948914037516,0.0,0,6,220.0,775,2877493303,10,30.0,-156.12754741224418,0.1,16,0.0,0.0,1.56109798E9,,,,0,,5,0.0,,,,,,,
Raw,1636162934999,1320198153000000000,18,,5404,0.5927794498838921,333.564095198152,143.2948914037516,0.0,0,8,220.0,17167,524552870944830,25,26.0,-55.396860847968995,0.1,16,0.0,0.0,1.56109798E9,,,,0,,5,0.0,,,,,,,
Raw,1636162934999,1320198153000000000,18,,5404,0.5927794498838921,333.564095198152,143.2948914037516,0.0,0,9,220.0,259,15996794,400,15.0,-178.28540644042312,0.1,16,0.0,0.0,1.56109798E9,,,,0,,5,0.0,,,,,,,
Raw,1636162934999,1320198153000000000,18,,5404,0.5927794498838921,333.564095198152,143.2948914037516,0.0,0,13,220.0,259,13618778,5,39.0,-41.88996589265501,0.1,16,0.0,0.0,1.56109798E9,,,,0,,5,0.0,,,,,,,
OrientationDeg,1636162934276,1022298846746806,78,-13,-32
OrientationDeg,1636162934292,1022298862629618,78,-14,-32
OrientationDeg,1636162934307,1022298878510868,78,-14,-33
OrientationDeg,1636162934323,1022298894393681,77,-15,-34
OrientationDeg,1636162934340,1022298910276493,77,-15,-35
OrientationDeg,1636162934355,1022298926157743,76,-16,-36
OrientationDeg,1636162934371,1022298942040556,75,-17,-37
Status,1636162934000,30,0,1,29,1575420032,44.00,129.84,86.32,1,1,1,
Status,1636162934000,30,1,3,8,1605374976,28.00,228.01,42.56,1,1,0,
Status,1636162934000,30,2,5,5,1561097984,32.00,252.18,51.12,0,0,0,
Status,1636162934000,30,3,1,5,1575420032,23.00,40.02,12.01,1,1,1,
Status,1636162934000,30,4,5,2,1561097984,37.00,160.27,75.69,0,0,0,
Status,1636162934000,30,5,5,3,1561097984,27.00,260.49,32.73,0,0,0,
Status,1636162934000,30,6,1,15,1575420032,33.00,50.31,57.02,1,1,1,
Status,1636162934000,30,7,1,23,1575420032,18.00,293.92,42.55,1,1,1,
Status,1636162934000,30,8,5,7,1561097984,34.00,165.94,21.39,1,0,1,
Status,1636162934000,30,9,5,10,1561097984,36.00,178.02,30.55,1,1,1,
Status,1636162934000,30,10,5,11,1561097984,30.00,126.10,25.87,1,0,0,
Status,1636162934000,30,11,5,14,1561097984,25.00,30.96,21.97,1,1,0,
Status,1636162934000,30,12,1,2,1575420032,17.00,101.35,9.65,1,1,1,
Status,1636162934000,30,13,1,10,1575420032,20.00,261.88,22.43,1,1,1,
Status,1636162934000,30,14,1,12,1575420032,22.00,170.94,9.55,1,1,1,
Status,1636162934000,30,15,1,13,1575420032,11.00,47.37,25.77,1,1,1,
Status,1636162934000,30,16,1,18,1575420032,35.00,340.33,31.05,1,1,1,
Status,1636162934000,30,17,1,24,1575420032,33.00,139.43,21.95,1,1,1,
Status,1636162934000,30,18,1,25,1575420032,37.00,199.91,22.28,1,1,1,
Status,1636162934000,30,19,1,26,1575420032,14.00,287.05,6.48,1,1,1,
Status,1636162934000,30,20,3,6,1599750016,27.00,19.64,25.61,0,1,1,
Status,1636162934000,30,21,3,22,1600312448,13.00,351.39,28.40,0,0,1,
Status,1636162934000,30,22,3,20,1603124992,13.00,120.17,20.36,0,1,0,
Status,1636162934000,30,23,3,21,1604249984,31.00,52.44,53.36,1,1,1,
Status,1636162934000,30,24,3,7,1604812544,36.00,329.81,70.54,1,0,0,
Status,1636162934000,30,25,5,6,1561097984,31.00,115.56,55.46,1,0,1,
Status,1636162934000,30,26,5,8,1561097984,27.00,36.94,31.44,1,0,0,
Status,1636162934000,30,27,5,9,1561097984,16.00,137.67,52.63,1,0,1,
Status,1636162934000,30,28,5,13,1561097984,40.00,24.61,37.28,1,1,0,
Status,1636162934000,30,29,5,1,1561097984,0.00,168.28,75.49,0,0,0,
OrientationDeg,1636162934386,1022298957921806,74,-17,-37
Fix,GPS,13.0419054,80.1995662,-82.567863,0.000000,3.000000,86.917068,1636162935000,0.0,0.0,1022298862478606
OrientationDeg,1636162934402,1022298973804618,73,-18,-37
OrientationDeg,1636162934419,1022298989687431,73,-18,-38
OrientationDeg,1636162934434,1022299005568681,72,-18,-38
OrientationDeg,1636162934450,1022299021449931,72,-18,-38
OrientationDeg,1636162934467,1022299037334306,72,-17,-38
OrientationDeg,1636162934482,1022299053215556,72,-17,-38
OrientationDeg,1636162934498,1022299069096806,73,-17,-39
OrientationDeg,1636162934513,1022299084984306,74,-17,-39
OrientationDeg,1636162934530,1022299100860868,75,-17,-40
OrientationDeg,1636162934545,1022299116748368,76,-17,-42
OrientationDeg,1636162934561,1022299132624931,77,-17,-44
OrientationDeg,1636162934578,1022299148506181,78,-17,-45
OrientationDeg,1636162934593,1022299164388993,79,-17,-46
OrientationDeg,1636162934609,1022299180271806,80,-17,-46
OrientationDeg,1636162934625,1022299196156181,83,-16,-47
OrientationDeg,1636162934641,1022299212035868,85,-15,-47
OrientationDeg,1636162934656,1022299227917118,86,-13,-47
OrientationDeg,1636162934672,1022299243799931,88,-11,-47
OrientationDeg,1636162934689,1022299259682743,89,-10,-46
OrientationDeg,1636162934704,1022299275568681,90,-8,-46
OrientationDeg,1636162934720,1022299291446806,91,-7,-46
OrientationDeg,1636162934736,1022299307328056,92,-6,-46
OrientationDeg,1636162934753,1022299323210868,93,-6,-47
OrientationDeg,1636162934768,1022299339093681,94,-6,-46
OrientationDeg,1636162934783,1022299354974931,94,-6,-46
OrientationDeg,1636162934799,1022299370856181,95,-5,-45
OrientationDeg,1636162934815,1022299386740556,95,-5,-45
OrientationDeg,1636162934831,1022299402621806,94,-5,-44
OrientationDeg,1636162934847,1022299418503056,93,-6,-43
OrientationDeg,1636162934863,1022299434387431,93,-7,-42
OrientationDeg,1636162934879,1022299450267118,93,-8,-41
OrientationDeg,1636162934895,1022299466149931,93,-8,-41
OrientationDeg,1636162934911,1022299482032743,93,-8,-41
OrientationDeg,1636162934927,1022299497913993,93,-8,-41
OrientationDeg,1636162934942,1022299513799931,93,-8,-41
OrientationDeg,1636162934958,1022299529678056,93,-8,-41
OrientationDeg,1636162934974,1022299545560868,93,-8,-41
OrientationDeg,1636162934990,1022299561442118,93,-8,-41
OrientationDeg,1636162935006,1022299577323368,94,-8,-41
OrientationDeg,1636162935022,1022299593207743,94,-8,-41
OrientationDeg,1636162935038,1022299609088993,94,-7,-41
OrientationDeg,1636162935053,1022299624971806,94,-7,-41
OrientationDeg,1636162935069,1022299640853056,94,-7,-41
OrientationDeg,1636162935085,1022299656735868,94,-6,-41
OrientationDeg,1636162935102,1022299672618681,94,-6,-41
OrientationDeg,1636162935117,1022299688499931,94,-6,-41
OrientationDeg,1636162935133,1022299704410868,94,-6,-41
OrientationDeg,1636162935149,1022299720263993,94,-6,-41
OrientationDeg,1636162935165,1022299736146806,93,-6,-41
OrientationDeg,1636162935181,1022299752029618,93,-6,-40
OrientationDeg,1636162935196,1022299767909306,92,-6,-40
OrientationDeg,1636162935212,1022299783792118,92,-7,-40
OrientationDeg,1636162935229,1022299799679618,91,-7,-39
OrientationDeg,1636162935245,1022299815556181,90,-7,-39
OrientationDeg,1636162935260,1022299831438993,90,-7,-38
OrientationDeg,1636162935276,1022299847320243,89,-7,-38
OrientationDeg,1636162935292,1022299863203056,89,-7,-37
Status,1636162935000,30,0,1,29,1575420032,37.00,129.94,86.31,1,1,1,
Status,1636162935000,30,1,3,8,1605374976,27.00,228.02,42.57,1,1,0,
Status,1636162935000,30,2,5,5,1561097984,32.00,252.18,51.12,0,0,0,
Status,1636162935000,30,3,1,5,1575420032,24.00,40.03,12.01,1,1,1,
Status,1636162935000,30,4,5,2,1561097984,35.00,160.27,75.69,0,0,0,
Status,1636162935000,30,5,5,3,1561097984,27.00,260.49,32.73,0,0,0,
Status,1636162935000,30,6,1,15,1575420032,33.00,50.30,57.01,1,1,1,
Status,1636162935000,30,7,1,23,1575420032,28.00,293.93,42.55,1,1,1,
Status,1636162935000,30,8,5,7,1561097984,32.00,165.94,21.39,1,0,1,
Status,1636162935000,30,9,5,10,1561097984,31.00,178.02,30.55,1,1,1,
Status,1636162935000,30,10,5,11,1561097984,31.00,126.10,25.87,1,0,0,
Status,1636162935000,30,11,5,14,1561097984,23.00,30.96,21.97,1,1,0,
Status,1636162935000,30,12,1,2,1575420032,16.00,101.35,9.65,1,1,1,
Status,1636162935000,30,13,1,10,1575420032,21.00,261.89,22.44,1,1,1,
Status,1636162935000,30,14,1,12,1575420032,21.00,170.94,9.54,1,1,1,
Status,1636162935000,30,15,1,13,1575420032,17.00,47.37,25.76,1,1,1,
Status,1636162935000,30,16,1,18,1575420032,33.00,340.34,31.05,1,1,1,
Status,1636162935000,30,17,1,24,1575420032,28.00,139.42,21.95,1,1,1,
Status,1636162935000,30,18,1,25,1575420032,36.00,199.91,22.27,1,1,1,
Status,1636162935000,30,19,1,26,1575420032,13.00,287.04,6.48,1,1,1,
Status,1636162935000,30,20,3,6,1599750016,24.00,19.64,25.61,0,1,1,
Status,1636162935000,30,21,3,22,1600312448,12.00,351.39,28.41,0,0,1,
Status,1636162935000,30,22,3,20,1603124992,10.00,120.18,20.35,0,1,0,
Status,1636162935000,30,23,3,21,1604249984,33.00,52.46,53.36,1,1,1,
Status,1636162935000,30,24,3,7,1604812544,37.00,329.83,70.54,1,0,0,
Status,1636162935000,30,25,5,6,1561097984,31.00,115.55,55.46,1,0,1,
Status,1636162935000,30,26,5,8,1561097984,25.00,36.94,31.45,1,0,0,
Status,1636162935000,30,27,5,9,1561097984,16.00,137.67,52.63,1,0,1,
Status,1636162935000,30,28,5,13,1561097984,35.00,24.61,37.29,1,1,0,
Status,1636162935000,30,29,5,1,1561097984,0.00,168.28,75.49,0,0,0,
Raw,1636162935999,1320198154000000000,18,,5546,0.7417154154936725,333.564095198152,143.6563517930153,0.0,0,29,220.0,3,12342364,10,37.0,82.13974355603568,0.1,16,0.0,0.0,1.57542003E9,,,,0,,1,0.0,,,,,,,
Raw,1636162935999,1320198154000000000,18,,5546,0.7417154154936725,333.564095198152,143.6563517930153,0.0,0,8,220.0,33,671604,25,27.0,-377.8720775770144,0.1,16,0.0,0.0,1.60537498E9,,,,0,,3,0.0,,,,,,,
Raw,1636162935999,1320198154000000000,18,,5546,0.7417154154936725,333.564095198152,143.6563517930153,0.0,0,5,220.0,259,18709095,10,31.0,42.474271158364466,0.1,16,0.0,0.0,1.56109798E9,,,,0,,5,0.0,,,,,,,
Raw,1636162935999,1320198154000000000,18,,5546,0.7417154154936725,333.564095198152,143.6563517930153,0.0,0,5,220.0,3,18586313,25,24.0,511.58509252709337,0.1,16,0.0,0.0,1.57542003E9,,,,0,,1,0.0,,,,,,,
Raw,1636162935999,1320198154000000000,18,,5546,0.7417154154936725,333.564095198152,143.6563517930153,0.0,0,2,220.0,17167,524553880108191,10,34.0,43.45106430457572,0.1,16,0.0,0.0,1.56109798E9,,,,0,,5,0.0,,,,,,,
Raw,1636162935999,1320198154000000000,18,,5546,0.7417154154936725,333.564095198152,143.6563517930153,0.0,0,3,220.0,259,15836801,25,26.0,334.2845837564129,0.1,16,0.0,0.0,1.56109798E9,,,,0,,5,0.0,,,,,,,
Raw,1636162935999,1320198154000000000,18,,5546,0.7417154154936725,333.564095198152,143.6563517930153,0.0,0,15,220.0,16399,524553931023135,10,33.0,331.76986256148666,0.1,16,0.0,0.0,1.57542003E9,,,,0,,1,0.0,,,,,,,
Raw,1636162935999,1320198154000000000,18,,5546,0.7417154154936725,333.564095198152,143.6563517930153,0.0,0,23,220.0,3,7108504,10,28.0,28.79820308298804,0.1,16,0.0,0.0,1.57542003E9,,,,0,,1,0.0,,,,,,,
Raw,1636162935999,1320198154000000000,18,,5546,0.7417154154936725,333.564095198152,143.6563517930153,0.0,0,7,220.0,17167,524553868308397,10,31.0,250.7318817966566,0.1,16,0.0,0.0,1.56109798E9,,,,0,,5,0.0,,,,,,,
Raw,1636162935999,1320198154000000000,18,,5546,0.7417154154936725,333.564095198152,143.6563517930153,0.0,0,10,220.0,17167,524553872395775,10,30.0,286.02775619321176,0.1,16,0.0,0.0,1.56109798E9,,,,0,,5,0.0,,,,,,,
Raw,1636162935999,1320198154000000000,18,,5546,0.7417154154936725,333.564095198152,143.6563517930153,0.0,0,11,220.0,17167,524553919006567,10,30.0,436.6294873931279,0.1,16,0.0,0.0,1.56109798E9,,,,0,,5,0.0,,,,,,,
Raw,1636162935999,1320198154000000000,18,,5546,0.7417154154936725,333.564095198152,143.6563517930153,0.0,0,14,220.0,17167,524553917503629,25,22.0,577.205071420075,0.1,16,0.0,0.0,1.56109798E9,,,,0,,5,0.0,,,,,,,
Raw,1636162935999,1320198154000000000,18,,5546,0.7417154154936725,333.564095198152,143.6563517930153,0.0,0,2,220.0,3,16906558,400,16.0,245.4004754545167,0.1,16,0.0,0.0,1.57542003E9,,,,0,,1,0.0,,,,,,,
Raw,1636162935999,1320198154000000000,18,,5546,0.7417154154936725,333.564095198152,143.6563517930153,0.0,0,10,220.0,3,926268,25,21.0,-175.01425006776117,0.1,16,0.0,0.0,1.57542003E9,,,,0,,1,0.0,,,,,,,
Raw,1636162935999,1320198154000000000,18,,5546,0.7417154154936725,333.564095198152,143.6563517930153,0.0,0,12,220.0,3,16566465,25,21.0,497.4376640981063,0.1,16,0.0,0.0,1.57542003E9,,,,0,,1,0.0,,,,,,,
Raw,1636162935999,1320198154000000000,18,,5546,0.7417154154936725,333.564095198152,143.6563517930153,0.0,0,13,220.0,3,3464744,400,17.0,520.4260016034823,0.1,16,0.0,0.0,1.57542003E9,,,,0,,1,0.0,,,,,,,
Raw,1636162935999,1320198154000000000,18,,5546,0.7417154154936725,333.564095198152,143.6563517930153,0.0,0,18,220.0,16399,524553924579895,10,33.0,-272.42874213843606,0.1,16,0.0,0.0,1.57542003E9,,,,0,,1,0.0,,,,,,,
Raw,1636162935999,1320198154000000000,18,,5546,0.7417154154936725,333.564095198152,143.6563517930153,0.0,0,24,220.0,3,2017925,10,28.0,-292.7599818154704,0.1,16,0.0,0.0,1.57542003E9,,,,0,,1,0.0,,,,,,,
Raw,1636162935999,1320198154000000000,18,,5546,0.7417154154936725,333.564095198152,143.6563517930153,0.0,0,25,220.0,16399,524553921005050,10,36.0,446.43739637103863,0.1,16,0.0,0.0,1.57542003E9,,,,0,,1,0.0,,,,,,,
Raw,1636162935999,1320198154000000000,18,,5546,0.7417154154936725,333.564095198152,143.6563517930153,0.0,0,26,220.0,3,16082913,400,13.0,3.1045166950207204,0.1,16,0.0,0.0,1.57542003E9,,,,0,,1,0.0,,,,,,,
Raw,1636162935999,1320198154000000000,18,,5546,0.7417154154936725,333.564095198152,143.6563517930153,0.0,0,6,220.0,33,6317962,25,24.0,751.187745013155,0.1,16,0.0,0.0,1.59975002E9,,,,0,,3,0.0,,,,,,,
Raw,1636162935999,1320198154000000000,18,,5546,0.7417154154936725,333.564095198152,143.6563517930153,0.0,0,22,220.0,33,6951080,400,12.0,-562.2924595263124,0.1,16,0.0,0.0,1.60031245E9,,,,0,,3,0.0,,,,,,,
Raw,1636162935999,1320198154000000000,18,,5546,0.7417154154936725,333.564095198152,143.6563517930153,0.0,0,20,220.0,33,4573692,400,10.0,417.3636867358723,0.1,16,0.0,0.0,1.60312499E9,,,,0,,3,0.0,,,,,,,
Raw,1636162935999,1320198154000000000,18,,5546,0.7417154154936725,333.564095198152,143.6563517930153,0.0,0,21,220.0,99,1932723195,10,33.0,-179.63944318140287,0.1,16,0.0,0.0,1.60424998E9,,,,0,,3,0.0,,,,,,,
Raw,1636162935999,1320198154000000000,18,,5546,0.7417154154936725,333.564095198152,143.6563517930153,0.0,0,7,220.0,99,1935096810,10,37.0,278.0570499949407,0.1,16,0.0,0.0,1.60481254E9,,,,0,,3,0.0,,,,,,,
Raw,1636162935999,1320198154000000000,18,,5546,0.7417154154936725,333.564095198152,143.6563517930153,0.0,0,6,220.0,259,17493820,10,30.0,-155.89589103164724,0.1,16,0.0,0.0,1.56109798E9,,,,0,,5,0.0,,,,,,,
Raw,1636162935999,1320198154000000000,18,,5546,0.7417154154936725,333.564095198152,143.6563517930153,0.0,0,8,220.0,775,3870945013,25,24.0,-55.6506500037822,0.1,16,0.0,0.0,1.56109798E9,,,,0,,5,0.0,,,,,,,
Raw,1636162935999,1320198154000000000,18,,5546,0.7417154154936725,333.564095198152,143.6563517930153,0.0,0,9,220.0,259,15997389,400,15.0,-178.0448969497397,0.1,16,0.0,0.0,1.56109798E9,,,,0,,5,0.0,,,,,,,
Raw,1636162935999,1320198154000000000,18,,5546,0.7417154154936725,333.564095198152,143.6563517930153,0.0,0,13,220.0,259,13618918,10,34.0,-41.581582557975025,0.1,16,0.0,0.0,1.56109798E9,,,,0,,5,0.0,,,,,,,
OrientationDeg,1636162935308,1022299879084306,88,-7,-36
OrientationDeg,1636162935324,1022299894965556,88,-7,-35
OrientationDeg,1636162935339,1022299910848368,87,-7,-34
OrientationDeg,1636162935355,1022299926731181,87,-6,-33
OrientationDeg,1636162935371,1022299942612431,86,-6,-32
OrientationDeg,1636162935387,1022299958495243,86,-6,-31
OrientationDeg,1636162935404,1022299974376493,86,-6,-30
OrientationDeg,1636162935419,1022299990262431,85,-6,-28
OrientationDeg,1636162935435,1022300006142118,85,-6,-26
OrientationDeg,1636162935451,1022300022024931,85,-6,-25
OrientationDeg,1636162935466,1022300037906181,84,-6,-23
OrientationDeg,1636162935482,1022300053788993,84,-7,-21
Fix,GPS,13.0419059,80.1995663,-82.567863,0.293077,3.000000,86.162598,1636162936000,0.0,0.0,1022299867367148
OrientationDeg,1636162935498,1022300069671806,83,-7,-20
OrientationDeg,1636162935514,1022300085553056,83,-8,-18
OrientationDeg,1636162935530,1022300101435868,82,-8,-18
OrientationDeg,1636162935546,1022300117315556,82,-8,-18
OrientationDeg,1636162935562,1022300133198368,81,-8,-19
OrientationDeg,1636162935578,1022300149081181,81,-8,-20
OrientationDeg,1636162935593,1022300164962431,81,-9,-20
OrientationDeg,1636162935609,1022300180845243,81,-9,-21
OrientationDeg,1636162935625,1022300196726493,81,-9,-22
OrientationDeg,1636162935642,1022300212609306,81,-9,-22
